,town,number_of_schools,lon,lat
0,"AL,Normal",1,-86.568502,34.783367999999996
1,"AL,Birmingham",8,-86.80631975,33.492131875
2,"AL,Montgomery",12,-86.25781083333334,32.368730166666666
3,"AL,Huntsville",7,-86.63343442857142,34.744028285714286
4,"AL,Tuscaloosa",5,-87.5564148,33.1860954
5,"AL,Alexander City",1,-85.945266,32.92478
6,"AL,Athens",1,-86.964698,34.806793
7,"AL,Auburn",1,-85.488258,32.599378
8,"AL,Phenix City",2,-85.014243,32.449064
9,"AL,Enterprise",1,-85.836956,31.297496000000002
10,"AL,Bay Minette",1,-87.778193,30.851343
11,"AL,Gadsden",1,-85.991438,33.994001000000004
12,"AL,Albertville",1,-86.196931,34.27871
13,"AL,Dothan",4,-85.41299174999999,31.2613035
14,"AL,Hanceville",1,-86.781935,34.072439
15,"AL,Selma",2,-87.022843,32.433152
16,"AL,Florence",2,-87.67220599999999,34.8314455
17,"AL,Deatsville",1,-86.39236899999999,32.582312
18,"AL,Jacksonville",1,-85.765321,33.822938
19,"AL,Tanner",1,-86.949674,34.645844
20,"AL,Marion",2,-87.3186235,32.62649350000001
21,"AL,Livingston",1,-88.186329,32.588132
22,"AL,Andalusia",1,-86.452262,31.322946999999996
23,"AL,Fairfield",1,-86.908751,33.482442
24,"AL,Mobile",8,-88.13508975,30.69419975
25,"AL,Montevallo",1,-86.865099,33.10625
26,"AL,Muscle Shoals",1,-87.678089,34.739788
27,"AL,Rainsville",1,-85.911664,34.545471
28,"AL,Evergreen",1,-86.96479699999999,31.460265000000003
29,"AL,Boaz",1,-86.16989699999999,34.201495
30,"AL,Talladega",1,-86.11270400000001,33.433471999999995
31,"AL,Troy",3,-85.95771133333334,31.799946000000002
32,"AL,Tuskegee",1,-85.708492,32.4309
33,"AL,Daphne",1,-87.91163,30.639328999999996
34,"AL,Jasper",1,-87.266406,33.836929
35,"AK,Anchorage",3,-149.829104,61.18752466666667
36,"AK,Palmer",1,-149.111972,61.598553
37,"AK,Fairbanks",2,-147.83605749999998,64.857538
38,"AK,Juneau",1,-134.63825500000002,58.384845999999996
39,"AK,Seward",1,-149.444487,60.110626
40,"WA,Vancouver",5,-122.605483,45.6512934
41,"AZ,Tucson",18,-110.93472794444446,32.22941638888889
42,"AZ,Phoenix",30,-112.08072456666667,33.5295649
43,"AZ,Mesa",8,-111.820133,33.38380325
44,"AZ,Flagstaff",4,-111.64574100000002,35.18785575
45,"AZ,Glendale",6,-112.17129033333333,33.59465
46,"AZ,Tempe",14,-111.94754835714285,33.40477371428571
47,"AZ,Yuma",2,-114.496106,32.6894385
48,"AZ,Coolidge",1,-111.652501,32.957091999999996
49,"AZ,Lake Havasu City",3,-114.33083733333335,34.482108333333336
50,"AZ,Sierra Vista",3,-110.24634266666665,31.56569233333333
51,"AZ,Chandler",6,-111.86111683333333,33.30251366666667
52,"AZ,Thatcher",2,-109.7618965,32.8449275
53,"AZ,Prescott",3,-112.460107,34.56982033333333
54,"AZ,Scottsdale",9,-111.87950533333334,33.54922633333334
55,"AZ,Kingman",2,-114.0286595,35.255404
56,"AZ,Tsaile",1,-109.21683999999999,36.293328
57,"AZ,Holbrook",1,-110.142199,34.93031
58,"NM,Albuquerque",14,-106.62497692857141,35.12309128571429
59,"AZ,Avondale",3,-112.30191933333333,33.46570500000001
60,"AR,Little Rock",16,-92.3396156875,34.7340453125
61,"AR,Russellville",3,-93.12726666666667,35.285122333333334
62,"AR,Batesville",2,-91.620603,35.785270999999995
63,"AR,North Little Rock",4,-92.26049649999999,34.771656
64,"AR,Fort Smith",5,-94.388769,35.3602688
65,"AR,Fayetteville",4,-94.17457125,36.089487500000004
66,"AR,Pine Bluff",5,-92.01232480000002,34.212019
67,"AR,Beebe",1,-91.895351,35.074176
68,"AR,Jonesboro",2,-90.680754,35.8301055
69,"AR,Monticello",1,-91.811153,33.590909
70,"AR,Jacksonville",2,-92.121245,34.887523
71,"AR,Pocahontas",1,-90.951033,36.239793
72,"AR,Conway",4,-92.447857,35.093278
73,"AR,De Queen",1,-94.3673,34.043389000000005
74,"AR,Paragould",1,-90.584395,36.064845
75,"AR,Forrest City",2,-90.7675235,35.0407355
76,"AR,Hot Springs",3,-93.07415666666667,34.50277766666667
77,"AR,Searcy",2,-91.730639,35.243267
78,"TN,Memphis",27,-89.9739944074074,35.12739714814815
79,"AR,Arkadelphia",2,-93.05608699999999,34.127123999999995
80,"AR,Siloam Springs",2,-94.550449,36.183535
81,"AR,Springdale",4,-94.17470775000001,36.184018
82,"AR,Rogers",3,-94.15816333333332,36.348209
83,"AR,West Memphis",1,-90.22285,35.145736
84,"AR,Blytheville",1,-89.92100500000001,35.898596999999995
85,"AR,Harrison",1,-93.08844,36.219909
86,"AR,Malvern",1,-92.821416,34.378745
87,"AR,Melbourne",1,-91.896355,36.053031
88,"AR,Clarksville",1,-93.467221,35.476278
89,"AR,Morrilton",1,-92.728507,35.172136
90,"AR,Helena",1,-90.616884,34.546155
91,"AR,El Dorado",2,-92.66509400000001,33.212739
92,"AR,Hope",1,-93.596762,33.641665
93,"AR,Texarkana",1,-94.004275,33.474796999999995
94,"AR,Mena",1,-94.219799,34.591449
95,"AR,N Little Rock",1,-92.26133100000001,34.75933
96,"AR,Walnut Ridge",1,-90.94027700000001,36.125676
97,"AR,Magnolia",1,-93.235922,33.291618
98,"AR,Camden",1,-92.72162900000001,33.628367
99,"CA,San Francisco",20,-122.4205574,37.77909525
100,"CA,Oakland",12,-122.23534991666666,37.79501691666666
101,"CA,Huntington Beach",2,-117.99516500000001,33.731033
102,"CA,Alameda",2,-122.2614345,37.77261
103,"CA,Santa Maria",3,-120.43213933333334,34.94169933333333
104,"CA,Los Angeles",56,-118.31425007142856,34.04824192857143
105,"CA,Berkeley",15,-122.26438313333333,37.87184453333334
106,"CA,West Covina",5,-117.9333838,34.072959000000004
107,"CA,Sacramento",24,-121.42551141666665,38.574278416666665
108,"CA,Lancaster",5,-118.1546868,34.676338
109,"CA,Pasadena",14,-118.14167342857142,34.15014357142857
110,"CA,San Diego",40,-117.14779954999999,32.757236225
111,"CA,Azusa",1,-117.888375,34.130047
112,"CA,Bakersfield",10,-119.0411229,35.3829576
113,"CA,Barstow",1,-117.02341200000001,34.870284999999996
114,"CA,Chula Vista",5,-117.06355899999998,32.6235954
115,"CA,Anaheim",13,-117.93524515384615,33.83597415384615
116,"CA,La Mirada",1,-118.014374,33.906203000000005
117,"CA,Oroville",1,-121.64483100000001,39.649782
118,"CA,Aptos",1,-121.924797,36.989447999999996
119,"CA,Riverside",12,-117.39585583333331,33.953115833333335
120,"CA,Thousand Oaks",1,-118.878924,34.224565999999996
121,"CA,San Luis Obispo",5,-120.6913448,35.298046
122,"CA,Fresno",13,-119.76044823076921,36.79252538461538
123,"CA,Alhambra",6,-118.14618183333333,34.08338816666667
124,"CA,Emeryville",4,-122.29236800000001,37.84596425
125,"CA,Irvine",11,-117.82592081818184,33.67824627272727
126,"CA,Turlock",2,-120.8581475,37.508609
127,"CA,Long Beach",6,-118.15592,33.797412
128,"CA,San Bernardino",5,-117.29164619999999,34.1093326
129,"CA,Pomona",5,-117.77938319999998,34.0591862
130,"CA,Chico",2,-121.8244415,39.7224975
131,"CA,Carson",2,-118.260918,33.854742
132,"CA,Fullerton",5,-117.9067736,33.878038200000006
133,"CA,Hayward",4,-122.09836225,37.6498225
134,"CA,Northridge",2,-118.543767,34.237043
135,"CA,Davis",1,-121.749567,38.539667
136,"CA,La Jolla",3,-117.24092699999999,32.899482666666664
137,"CA,Santa Barbara",6,-119.72085149999998,34.4243985
138,"CA,Santa Cruz",3,-122.02692300000001,36.97596266666667
139,"CA,Palo Alto",2,-122.14804850000002,37.406270500000005
140,"CA,Modesto",8,-121.02033937499999,37.677961249999996
141,"CA,Garden Grove",7,-117.965475,33.77948057142857
142,"CA,La Mesa",2,-117.02416199999999,32.7645335
143,"CA,Valencia",2,-118.558426,34.4038665
144,"CA,Vallejo",3,-122.24696133333333,38.088056333333334
145,"CA,Redwood City",1,-122.265398,37.44877
146,"CA,Santa Clarita",2,-118.54344549999999,34.392874
147,"CA,Van Nuys",4,-118.4689065,34.1920045
148,"CA,San Jose",17,-121.89005376470587,37.33795164705883
149,"CA,El Centro",1,-115.549079,32.790908
150,"CA,Colton",2,-117.328972,34.066847
151,"CA,Watsonville",1,-121.767991,36.931833000000005
152,"CA,Salinas",5,-121.6564922,36.6844574
153,"CA,Norwalk",1,-118.09733700000001,33.886874
154,"CA,Ridgecrest",1,-117.66767,35.567525
155,"CA,Rancho Cucamonga",3,-117.56848866666667,34.103437
156,"CA,Orange",3,-117.83110366666666,33.79221633333333
157,"CA,Santee",1,-116.97811200000001,32.842403999999995
158,"CA,Stockton",12,-121.2991541666667,37.9956995
159,"CA,Glendora",1,-117.88526599999999,34.135487
160,"CA,Citrus Heights",3,-121.28588533333334,38.690923
161,"CA,Claremont",9,-117.713777,34.10162322222223
162,"CA,Visalia",8,-119.3393935,36.31593875
163,"CA,Clovis",5,-119.70150459999999,36.8276452
164,"CA,Costa Mesa",6,-117.90199333333334,33.67903233333334
165,"CA,Fountain Valley",3,-117.92315033333334,33.722532333333334
166,"CA,Sonora",1,-120.38838500000001,38.030367
167,"CA,Tarzana",2,-118.538756,34.1749695
168,"IL,Chicago",71,-87.64538918309859,41.867268239436626
169,"CA,Compton",1,-118.20946299999999,33.878226
170,"CA,Martinez",1,-122.13533500000001,38.019071999999994
171,"CA,San Pablo",1,-122.337377,37.969381
172,"CA,Yucaipa",1,-117.101173,34.039178
173,"CA,El Cajon",6,-116.96492883333333,32.798025833333334
174,"CA,Cypress",2,-118.02866,33.81714
175,"CA,Cupertino",1,-122.04555800000001,37.320788
176,"CA,Palm Desert",3,-116.38182233333333,33.74833533333334
177,"CA,Blue Lake",1,-123.988808,40.880924
178,"CA,Pleasant Hill",4,-122.06532050000001,37.95817525
179,"CA,San Rafael",1,-122.512051,37.981279
180,"CA,Monterey Park",1,-118.148785,34.040531
181,"CA,Torrance",3,-118.32390866666667,33.849698
182,"CA,Hollywood",5,-118.33424360000001,34.097179
183,"CA,Santa Monica",4,-118.4850735,34.0186165
184,"CA,Santa Rosa",3,-122.73536033333335,38.477842333333335
185,"CA,Quincy",1,-120.97306699999999,39.953101000000004
186,"CA,Redondo Beach",1,-118.37213700000001,33.873098
187,"CA,Los Altos Hills",2,-122.127962,37.3616595
188,"CA,Oceanside",2,-117.31133600000001,33.2114495
189,"CA,Eureka",2,-124.1801395,40.748656
190,"CA,Gilroy",1,-121.569842,36.972627
191,"CA,Carlsbad",1,-117.31876499999998,33.131313
192,"CA,Glendale",6,-118.25285249999997,34.15293383333334
193,"WA,Seattle",19,-122.3381184736842,47.62472752631579
194,"CA,Santa Clara",4,-121.96758375,37.37506725
195,"CA,Daly City",1,-122.461467,37.705502
196,"CA,Carpinteria",2,-119.53341549999999,34.4042805
197,"CA,Arcata",1,-124.07829299999999,40.877481
198,"CA,Imperial",3,-115.50355833333333,32.827677
199,"CA,Newport Beach",1,-117.86572199999999,33.641393
200,"CA,Tustin",1,-117.830905,33.716501
201,"CA,Reedley",2,-119.44515,36.604553
202,"CA,San Dimas",2,-117.82843600000001,34.104714
203,"VA,Christiansburg",1,-80.414888,37.116221
204,"CA,La Verne",1,-117.77326200000002,34.100854999999996
205,"CA,Laguna Beach",1,-117.77256399999999,33.561448
206,"CA,South Lake Tahoe",1,-119.972574,38.926797
207,"CA,Susanville",1,-120.633271,40.432053
208,"CA,Loma Linda",1,-117.260605,34.051241
209,"CA,Whittier",3,-118.01640200000001,33.97385333333333
210,"CA,Wilmington",1,-118.28186000000001,33.784201
211,"CA,Woodland Hills",1,-118.575071,34.183949
212,"CA,Valley Glen",1,-118.42173400000001,34.175165
213,"CA,Sylmar",1,-118.4195,34.314668
214,"CA,Pittsburg",1,-121.86096699999999,38.006474
215,"CA,Ventura",5,-119.2407344,34.265378600000005
216,"CA,Kentfield",1,-122.549149,37.954896999999995
217,"CA,Rancho Palos Verdes",1,-118.333371,33.734887
218,"CA,San Pedro",1,-118.281861,33.738991
219,"CA,Lucerne",1,-122.78877299999999,39.089326
220,"CA,Ukiah",2,-123.22192150000001,39.174968
221,"CA,Atherton",1,-122.190797,37.453475
222,"CA,Merced",4,-120.46958724999999,37.3327575
223,"CA,Cardiff",1,-117.25856100000001,33.018082
224,"CA,Oxnard",3,-119.17349233333333,34.185232000000006
225,"CA,Monterey",3,-121.88550133333335,36.59581766666667
226,"CA,Moorpark",1,-118.834528,34.301146
227,"CA,Walnut",1,-117.84662900000001,34.047764
228,"CA,San Jacinto",2,-117.244412,33.845411
229,"CA,Napa",1,-122.274381,38.274081
230,"CA,Granada Hills",1,-118.499693,34.256683
231,"CA,Fremont",4,-121.94145350000001,37.50595025
232,"CA,Belmont",1,-122.28479399999999,37.517111
233,"CA,Angwin",1,-122.440308,38.570584999999994
234,"CA,Blythe",1,-114.651698,33.661538
235,"CA,San Marcos",8,-117.166654875,33.140823
236,"CA,Malibu",1,-118.707077,34.037786
237,"CA,Porterville",1,-119.01436799999999,36.049256
238,"CA,El Monte",2,-118.03459000000001,34.0728685
239,"CA,Santa Ana",9,-117.86187699999999,33.74529255555555
240,"CA,Redding",4,-122.3381575,40.60055475
241,"CA,Redlands",3,-117.19975066666666,34.06507466666667
242,"CA,Upland",1,-117.63178300000001,34.108247
243,"CA,Corona",2,-117.5390695,33.8534475
244,"CA,Rosemead",2,-118.08287849999999,34.0633705
245,"CA,Mission Viejo",2,-117.66558400000001,33.553346000000005
246,"CA,Calexico",1,-115.49306000000001,32.672219
247,"CA,San Anselmo",1,-122.56540700000001,37.969952
248,"CA,French Camp",1,-121.283898,37.886956
249,"CA,Hanford",2,-119.6426745,36.3296895
250,"CA,Ontario",8,-117.581472625,34.065254374999995
251,"CA,Salida",3,-121.09165899999999,37.71625766666667
252,"CA,Rancho Cordova",3,-121.297588,38.58472066666667
253,"CA,Hesperia",1,-117.383128,34.420664
254,"CA,Temecula",7,-117.14550285714287,33.50893785714286
255,"CA,Madera",1,-120.082572,36.977032
256,"CA,Delano",1,-119.229045,35.774842
257,"CA,Atascadero",1,-120.652902,35.471552
258,"CA,Rocklin",3,-121.268348,38.810381666666665
259,"CA,San Mateo",3,-122.326682,37.53812666666667
260,"CA,Weed",1,-122.38909,41.413005
261,"CA,San Bruno",1,-122.467335,37.63042
262,"CA,Moraga",1,-122.109031,37.840731
263,"CA,Fairfield",3,-122.10528766666665,38.232154333333334
264,"CA,Rohnert Park",1,-122.677066,38.340274
265,"CA,Camarillo",3,-119.03445933333334,34.20864766666667
266,"CA,Taft",1,-119.459751,35.149343
267,"CA,Santa Paula",1,-119.08714099999999,34.429009
268,"MA,Northfield",2,-72.444887,42.714545
269,"CA,Huntington Park",3,-118.225324,33.98252133333334
270,"CA,North Hollywood",5,-118.3878756,34.1814806
271,"CA,Victorville",1,-117.26145600000001,34.472231
272,"CA,Saratoga",2,-122.008324,37.26398
273,"MN,Minneapolis",13,-93.2647553076923,44.973242769230765
274,"CA,Coalinga",3,-120.357553,36.15529866666667
275,"CA,Culver City",2,-118.385561,33.9965225
276,"CA,Escondido",4,-117.07585925000001,33.1257935
277,"CA,Burbank",4,-118.32208675000001,34.1801815
278,"CA,Marysville",1,-121.53963999999999,39.126536
279,"CO,Grand Junction",3,-108.54970166666668,39.091701
280,"CO,Alamosa",1,-105.87964199999999,37.473636
281,"CO,Greeley",3,-104.71575566666667,40.415557666666665
282,"CO,Littleton",3,-105.04602766666665,39.605409333333334
283,"CO,Denver",23,-104.96098417391305,39.73993543478261
284,"CO,Colorado Springs",15,-104.78826459999999,38.86925153333334
285,"CO,Broomfield",1,-105.119096,39.914821999999994
286,"CO,Boulder",6,-105.23862716666667,40.02697833333333
287,"CO,Lakewood",9,-105.09938077777778,39.71464233333333
288,"CO,Aurora",11,-104.82435845454546,39.69590863636364
289,"CO,Glenwood Springs",1,-107.324441,39.54636
290,"CO,Rangely",1,-108.790048,40.081112
291,"CO,Golden",1,-105.22336399999999,39.751443
292,"CO,Fort Collins",5,-105.0718232,40.547961599999994
293,"CO,Delta",1,-108.031072,38.702524
294,"MD,Landover",3,-76.86381566666667,38.945148
295,"TX,Amarillo",8,-101.8960135,35.18590875
296,"CO,Durango",1,-107.86742199999999,37.275939
297,"CO,Westminster",4,-105.04616649999998,39.884471500000004
298,"CO,Lamar",1,-102.61614399999999,38.068886
299,"CO,Fort  Morgan",1,-103.771822,40.258792
300,"CO,Sterling",1,-103.19732900000001,40.637215000000005
301,"CO,La Junta",3,-103.53638133333334,37.97421966666667
302,"CO,Las Animas",1,-103.131373,38.074746999999995
303,"CO,Thornton",2,-104.9645055,39.8884065
304,"CO,Pueblo",2,-104.60764549999999,38.285357000000005
305,"CO,Trinidad",1,-104.513451,37.172059000000004
306,"CO,USAF Academy",1,-104.89135800000001,39.010957
307,"CO,Gunnison",1,-106.919132,38.549935999999995
308,"CT,New Haven",4,-72.93152875,41.32017175
309,"CT,Enfield",2,-72.57067649999999,41.9968265
310,"NY,Monsey",10,-74.0670484,41.116159100000004
311,"CT,Branford",2,-72.85095050000001,41.277872
312,"CT,Bridgeport",3,-73.18685833333333,41.175558333333335
313,"CT,New Britain",3,-72.76282033333332,41.679994666666666
314,"CT,Cromwell",2,-72.6632075,41.6054305
315,"CT,New London",5,-72.1010216,41.3567226
316,"CT,Hamden",3,-72.92035766666667,41.371065666666674
317,"CT,Storrs",1,-72.249948,41.809098
318,"CT,East Hartford",3,-72.62975933333333,41.76441033333333
319,"CT,East Windsor",1,-72.596915,41.924248
320,"CT,Willimantic",1,-72.218753,41.721672999999996
321,"CT,Fairfield",2,-73.2496175,41.189282999999996
322,"CT,North Haven",1,-72.85745,41.394495
323,"CT,Hartford",7,-72.67466499999999,41.755995999999996
324,"CT,West Hartford",3,-72.72354166666668,41.76888266666666
325,"CT,Manchester",1,-72.561939,41.761625
326,"CT,Waterbury",9,-73.02828744444444,41.559376333333326
327,"CT,Middletown",2,-72.634492,41.547090499999996
328,"CT,Norwich",1,-72.103039,41.509945
329,"CT,Uncasville",1,-72.11034000000001,41.452711
330,"CT,Niantic",1,-72.23589399999999,41.322272
331,"CT,Somers",1,-72.450218,41.979699
332,"CT,West Haven",2,-72.96921900000001,41.2794085
333,"CT,Norwalk",1,-73.450965,41.102574
334,"CT,Winsted",1,-73.058734,41.920668
335,"CT,Stratford",3,-73.14356733333334,41.167214333333334
336,"CT,Rocky Hill",1,-72.654475,41.676390000000005
337,"MA,Chicopee",3,-72.56366633333333,42.163491
338,"MA,Worcester",12,-71.80633883333334,42.27672166666667
339,"MA,Canton",3,-71.09717766666667,42.176002000000004
340,"CT,Danielson",1,-71.889673,41.826229999999995
341,"CT,Farmington",1,-72.87754,41.705498
342,"CT,Danbury",2,-73.4471805,41.3968075
343,"DE,Lewes",1,-75.142864,38.771565
344,"DE,Newark",6,-75.708264,39.6712585
345,"DE,Dover",5,-75.546635,39.1808192
346,"DE,Georgetown",1,-75.406093,38.696677
347,"DE,Wilmington",5,-75.5728112,39.754903999999996
348,"DE,New Castle",1,-75.586998,39.682299
349,"DC,Washington",25,-77.0323246,38.919376119999995
350,"FL,Coconut Creek",1,-80.19227099999999,26.24278
351,"FL,Graceville",1,-85.50393100000001,30.962708000000003
352,"FL,Miami",47,-80.32077453191488,25.81972485106382
353,"FL,Orlando",21,-81.34535352380954,28.525841761904765
354,"FL,Daytona Beach",5,-81.050778,29.198951799999996
355,"FL,Boca Raton",5,-80.13126580000001,26.373531800000002
356,"FL,Starke",1,-82.117224,29.952308000000002
357,"FL,Cocoa",1,-80.756474,28.383609999999997
358,"FL,Fort Lauderdale",7,-80.17071257142857,26.145752142857138
359,"FL,Ocala",3,-82.17363733333333,29.161483
360,"FL,Kissimmee",6,-81.412282,28.273800499999997
361,"FL,Port Charlotte",1,-82.147238,27.005558
362,"FL,Marianna",1,-85.23139,30.789228
363,"FL,Naples",3,-81.744438,26.219729666666666
364,"FL,Royal Palm Beach",2,-80.21423949999999,26.68755
365,"FL,Saint Petersburg",4,-82.682673,27.78136225
366,"FL,Fort Myers",12,-81.84554591666667,26.582043666666664
367,"FL,Jacksonville",24,-81.61512391666666,30.287504666666667
368,"FL,Tallahassee",9,-84.30558544444445,30.44904655555555
369,"FL,Saint Augustine",2,-81.330358,29.908555000000003
370,"FL,Temple Terrace",1,-82.383289,28.034936
371,"FL,Miramar",4,-80.31723925,25.98174725
372,"FL,Tampa",23,-82.4561836521739,27.994802913043475
373,"FL,Melbourne",5,-80.6390566,28.0850844
374,"FL,Pensacola",6,-87.21816183333333,30.507607000000004
375,"FL,Key West",1,-81.74446,24.582748000000002
376,"FL,Miami Gardens",3,-80.26952733333333,25.92165866666667
377,"FL,Gainesville",9,-82.36044566666665,29.649948888888886
378,"FL,Lakeland",8,-81.941669625,28.053519
379,"FL,Fort Pierce",3,-80.350454,27.441100666666667
380,"FL,Winter Park",5,-81.338467,28.6002026
381,"FL,Panama City",2,-85.6872515,30.194452499999997
382,"FL,Hobe Sound",1,-80.13184,27.066304
383,"FL,Hollywood",5,-80.2080232,26.0285664
384,"FL,St. Petersburg",2,-82.6580835,27.778709499999998
385,"FL,South Daytona",1,-80.997811,29.162159000000003
386,"FL,Sarasota",10,-82.49574479999998,27.370967200000003
387,"FL,Pembroke Pines",4,-80.28060825,26.0062755
388,"FL,Port St Lucie",1,-80.419933,27.254949
389,"FL,West Palm Beach",9,-80.1002778888889,26.700623555555552
390,"FL,Ft Myers",1,-81.803666,26.629125
391,"FL,Clearwater",7,-82.73171928571428,27.92266485714286
392,"FL,New Port Richey",5,-82.693291,28.264198799999996
393,"FL,Hialeah",12,-80.31512725,25.867615249999997
394,"FL,Lake City",1,-82.5679,30.175297999999998
395,"FL,Eustis",1,-81.690874,28.833446000000002
396,"FL,Leesburg",2,-81.8356715,28.819965
397,"GA,Lithonia",2,-84.10346200000001,33.6943395
398,"FL,Bradenton",4,-82.55556975,27.4313105
399,"FL,Oakland Park",2,-80.15578,26.178355
400,"FL,Miami Lakes",5,-80.2932438,25.9204094
401,"FL,Coral Gables",1,-80.278662,25.72126
402,"FL,Madison",1,-83.420732,30.473840999999997
403,"FL,Niceville",1,-86.47456,30.540017
404,"FL,Lake Worth",1,-80.08653000000001,26.61256
405,"FL,Winter Haven",2,-81.683168,28.0545215
406,"FL,Milton",1,-87.09971,30.648077
407,"FL,Boynton Beach",3,-80.09252633333334,26.524352333333336
408,"FL,Saint Leo",1,-82.257801,28.336776
409,"FL,Sanford",2,-81.27975699999999,28.762031
410,"FL,Palatka",1,-81.681387,29.647515999999996
411,"FL,Avon Park",1,-81.508667,27.569740000000003
412,"FL,DeLand",1,-81.30074599999999,29.035475
413,"FL,Live Oak",1,-82.992512,30.281999
414,"FL,Miami Beach",2,-80.1388135,25.7972205
415,"FL,Perry",1,-83.565783,30.077954
416,"FL,Trinity",1,-82.678318,28.194732000000002
417,"FL,Lake Wales",1,-81.599972,27.825751
418,"FL,Chipley",1,-85.553345,30.774490000000004
419,"FL,Babson Park",1,-81.532315,27.838778
420,"FL,Land O'Lakes",1,-82.50822600000001,28.194871000000003
421,"FL,Winter Garden",1,-81.57153199999999,28.559573999999998
422,"FL,Davie",2,-80.2419835,26.0777345
423,"FL,Inverness",1,-82.345563,28.834861
424,"GA,Tifton",1,-83.528281,31.481889000000002
425,"GA,Decatur",4,-84.26356125000001,33.75484525
426,"GA,Chamblee",1,-84.303159,33.887956
427,"GA,Morrow",5,-84.33140799999998,33.5753408
428,"GA,Albany",3,-84.16448533333333,31.559432333333334
429,"GA,Cuthbert",1,-84.79502099999999,31.772321
430,"GA,Atlanta",36,-84.37853191666667,33.79763752777777
431,"GA,Conyers",1,-84.018321,33.643359999999994
432,"GA,West Point",1,-85.184931,32.87912
433,"GA,Augusta",7,-82.041911,33.47375342857142
434,"GA,Mount Berry",1,-85.18920200000001,34.290414
435,"GA,Gainesville",4,-83.81838499999999,34.301618
436,"GA,Mount Vernon",1,-82.586136,32.185718
437,"GA,Brunswick",1,-81.485973,31.182745
438,"GA,Waco",1,-85.183666,33.691657
439,"GA,Columbus",6,-84.951287,32.502906
440,"GA,Rome",3,-85.19174866666667,34.21733566666666
441,"GA,Lookout Mountain",1,-85.375066,34.965161
442,"GA,Dalton",2,-84.986615,34.7684285
443,"GA,Stone Mountain",2,-84.1882425,33.80415
444,"GA,Savannah",8,-81.107191125,32.024448750000005
445,"GA,Swainsboro",1,-82.309021,32.594944
446,"GA,Statesboro",3,-81.80977866666666,32.404776
447,"GA,Franklin Springs",1,-83.14822,34.283640999999996
448,"GA,Fort Valley",1,-83.89537,32.537595
449,"GA,Americus",2,-84.2030295,32.0856625
450,"GA,Milledgeville",2,-83.22808649999999,33.0811135
451,"GA,Athens",3,-83.389407,33.961097333333335
452,"GA,Barnesville",1,-84.15450799999999,33.04571
453,"GA,Griffin",1,-84.291662,33.255438
454,"GA,Lilburn",2,-84.131518,33.898931000000005
455,"GA,Lawrenceville",5,-84.0586724,33.963654
456,"GA,Lagrange",1,-85.043113,33.038564
457,"GA,Marietta",5,-84.5091132,33.9294484
458,"GA,Macon",6,-83.690436,32.84168333333333
459,"GA,Clarkesville",1,-83.530118,34.639721
460,"GA,Demorest",1,-83.542126,34.566041999999996
461,"GA,Waleska",1,-84.554264,34.319756
462,"GA,Thomasville",2,-83.9574935,30.8396875
463,"GA,Toccoa Falls",1,-83.357617,34.593414
464,"GA,Cleveland",1,-83.74891099999999,34.596306
465,"GA,Valdosta",3,-83.30318466666667,30.875738333333334
466,"GA,Carrollton",1,-85.097762,33.573621
467,"GA,Young Harris",1,-83.84586999999999,34.933523
468,"HI,Honolulu",13,-157.84304853846155,21.30284692307692
469,"HI,Hilo",2,-155.07525,19.7029725
470,"HI,Lihue",1,-159.395883,21.968887
471,"HI,Pearl City",1,-157.983771,21.392670000000003
472,"HI,Kahului",2,-156.47005000000001,20.891208499999998
473,"HI,Kapolei",1,-158.056403,21.35531
474,"HI,Kaneohe",1,-157.813307,21.407051
475,"ID,Boise",9,-116.27604066666669,43.61456955555556
476,"ID,Idaho Falls",3,-112.01273566666667,43.48412
477,"ID,Pocatello",1,-112.43231200000001,42.863832
478,"ID,Moscow",3,-117.005711,46.72945333333333
479,"ID,Caldwell",1,-116.67799199999999,43.652284
480,"ID,Lewiston",3,-117.02364733333333,46.41714666666667
481,"ID,Twin Falls",2,-114.467723,42.586702
482,"ID,Coeur d'Alene",1,-116.798905,47.67569
483,"ID,Nampa",4,-116.55783325,43.589519749999994
484,"ID,Chubbuck",1,-112.464554,42.919964
485,"ID,Rexburg",4,-111.80039599999999,43.817522
486,"IL,Rock Island",2,-90.559716,41.4936445
487,"IL,Aurora",2,-88.3601605,41.773272500000004
488,"IL,Urbana",2,-88.2171845,40.113108499999996
489,"IL,Belleville",2,-89.9677385,38.519733
490,"IN,Richmond",6,-84.8849975,39.847989000000005
491,"IL,Moline",2,-90.46570650000001,41.4833385
492,"IL,Carlinville",1,-89.87024100000001,39.287896
493,"IL,Quincy",6,-91.37901749999999,39.933384499999995
494,"IL,Peoria",5,-89.6180374,40.7373528
495,"IL,Bourbonnais",2,-87.861132,41.164063999999996
496,"IL,Oak Lawn",1,-87.740894,41.716051
497,"IL,Villa Park",1,-87.994628,41.90417
498,"IL,Hanover Park",1,-88.135725,41.977515999999994
499,"IL,Oak Forest",2,-87.75401550000001,41.608909999999995
500,"IL,Galesburg",2,-90.390684,40.962171999999995
501,"IL,East Moline",1,-90.44935100000001,41.490319
502,"IL,Downers Grove",4,-88.002702,41.812774250000004
503,"IL,River Forest",2,-87.81624249999999,41.900687000000005
504,"IL,Danville",3,-87.622859,40.113966000000005
505,"IL,Naperville",2,-88.134562,41.787817
506,"IL,Crystal Lake",4,-88.3224725,42.245563499999996
507,"IL,Glen Ellyn",1,-88.071635,41.841577
508,"IL,Charleston",1,-88.175658,39.479843
509,"IL,Elgin",4,-88.3194505,42.030828
510,"IL,Elmhurst",1,-87.945369,41.897164000000004
511,"IL,Eureka",1,-89.269624,40.71482
512,"IL,Bedford Park",1,-87.74472800000001,41.771488
513,"IL,Evanston",4,-87.68033599999998,42.054854
514,"IL,University Park",1,-87.716441,41.449103
515,"IL,Canton",3,-90.04803533333332,40.54649933333334
516,"IL,Greenville",1,-89.40824,38.894162
517,"IL,Schaumburg",1,-88.083218,42.061983000000005
518,"IL,Sycamore",1,-88.71814499999999,41.962221
519,"IL,Oswego",1,-88.364727,41.682590999999995
520,"IL,Skokie",3,-87.752025,42.04426
521,"IL,Freeport",3,-89.67372499999999,42.283357
522,"IL,North Chicago",1,-87.85963199999999,42.300069
523,"IL,Lisle",3,-88.085823,41.797881
524,"IL,Champaign",2,-88.2597365,40.1183405
525,"IL,Bloomington",2,-88.98573350000001,40.4823485
526,"IL,East Peoria",3,-89.54183366666666,40.67178466666666
527,"IL,Jacksonville",3,-90.23342533333333,39.725632
528,"IL,Olney",2,-88.09078249999999,38.7327985
529,"IL,Normal",3,-88.988151,40.51726433333334
530,"IL,Oglesby",1,-89.100887,41.30744
531,"IL,Carterville",1,-89.09021,37.747453
532,"IL,Joliet",3,-88.14196266666666,41.518627333333335
533,"IL,Kankakee",1,-87.851047,41.098178000000004
534,"IL,Centralia",1,-89.191974,38.562112
535,"IL,Malta",1,-88.880524,41.938234
536,"IL,PERU",1,-89.118454,41.354338
537,"IL,Grayslake",1,-88.012291,42.354164000000004
538,"IL,Lake Forest",2,-87.86032900000001,42.246503
539,"IL,Mattoon",1,-88.380835,39.416969
540,"IL,Godfrey",1,-90.194405,38.951624
541,"IL,Romeoville",2,-88.10399100000001,41.629269
542,"IL,Lincoln",2,-89.35412550000001,40.152183
543,"IL,Springfield",7,-89.63586242857143,39.77000071428571
544,"IL,Melrose Park",1,-87.832162,41.905577
545,"IL,Lebanon",1,-89.816822,38.608154
546,"IL,Decatur",4,-88.94005899999999,39.85396125
547,"IL,Monmouth",1,-90.63731,40.914823999999996
548,"MI,Plymouth",1,-83.451903,42.366828000000005
549,"IL,Palos Hills",2,-87.8267645,41.698747
550,"IL,Morrison",1,-89.965963,41.7971
551,"IL,Cicero",2,-87.764775,41.8374795
552,"IL,Lombard",3,-88.015598,41.84719966666667
553,"IL,Niles",2,-87.826622,42.0389015
554,"IL,Dekalb",2,-88.7589495,41.9322195
555,"IL,Des Plaines",1,-87.88064399999999,42.061893
556,"IL,Chicago Heights",1,-87.63894300000001,41.525316
557,"IL,Elsah",1,-90.350285,38.948834999999995
558,"IL,Ina",1,-88.918283,38.131481
559,"IL,Rockford",8,-89.00823775,42.278673749999996
560,"IL,Dixon",2,-89.5971455,41.8176795
561,"IL,Ullin",1,-89.03352,37.270198
562,"IL,Mundelein",1,-88.000262,42.280702000000005
563,"IL,Harrisburg",1,-88.436631,37.751740000000005
564,"IL,Sterling",1,-89.692522,41.788581
565,"IL,Carbondale",2,-89.2247445,37.710333
566,"IL,Edwardsville",1,-89.99777900000001,38.793949
567,"IL,South Holland",1,-87.619123,41.606427000000004
568,"IL,LITCHFIELD",1,-89.655742,39.176137
569,"IL,Palos Heights",1,-87.783973,41.667687
570,"IL,Deerfield",1,-87.880851,42.197945000000004
571,"IL,River Grove",1,-87.84105600000001,41.916082
572,"IL,Sugar Grove",1,-88.459925,41.795955
573,"IL,Macomb",1,-90.686899,40.468086
574,"IL,Wheaton",1,-88.099643,41.870176
575,"IL,Palatine",1,-88.072811,42.081829
576,"IN,Donaldson",1,-86.445263,41.337958
577,"IN,Anderson",3,-85.65732700000001,40.087984666666664
578,"IN,Muncie",4,-85.40720974999999,40.193626
579,"IN,Mishawaka",1,-86.194686,41.678399
580,"IN,Indianapolis",29,-86.15431562068964,39.82038603448276
581,"IN,Whiting",1,-87.494123,41.671008
582,"IN,Valparaiso",3,-87.06143133333335,41.46750900000001
583,"IN,Fort Wayne",11,-85.13044172727274,41.107594272727276
584,"IN,Highland",1,-87.46701800000001,41.555884999999996
585,"IN,Greencastle",1,-86.860363,39.640904
586,"IN,Schererville",1,-87.447089,41.485532
587,"IN,Evansville",6,-87.56097799999999,37.982548333333334
588,"IN,Franklin",1,-86.04718199999999,39.478297999999995
589,"IN,Goshen",1,-85.827795,41.563582000000004
590,"IN,Winona Lake",1,-85.814228,41.22595
591,"IN,Hanover",1,-85.460051,38.715641999999995
592,"IN,Terre Haute",4,-87.3771735,39.448243500000004
593,"IN,Notre Dame",3,-86.24990933333333,41.70310933333333
594,"IN,Clarksville",1,-85.768914,38.3121
595,"IN,Brownsburg",1,-86.379755,39.837832
596,"KY,Crestwood",1,-85.471755,38.324789
597,"IN,Jeffersonville",4,-85.72720625000001,38.3067515
598,"IN,Huntington",1,-85.49731700000001,40.898152
599,"IN,South Bend",4,-86.23546475,41.66545725
600,"IN,Columbus",2,-85.901941,39.250778499999996
601,"IN,Kokomo",5,-86.12138999999999,40.468829799999995
602,"IN,Lafayette",6,-86.84402716666666,40.401660166666666
603,"IN,Sellersburg",1,-85.762648,38.389796999999994
604,"IN,Gary",3,-87.33144366666666,41.547721333333335
605,"IN,Madison",1,-85.376301,38.780425
606,"IN,Bloomington",3,-86.55333266666666,39.17146
607,"IN,New Albany",2,-85.809393,38.341949
608,"IN,Knox",1,-86.618158,41.287712
609,"IN,North Manchester",1,-85.76264300000001,41.010549
610,"IN,Marion",4,-85.66635500000001,40.5364895
611,"IN,Elkhart",1,-85.972165,41.656013
612,"MI,Kalamazoo",7,-85.62866214285714,42.26641385714286
613,"IN,Oakland City",1,-87.35144,38.340891
614,"IN,Saint Mary of the Woods",1,-87.463791,39.508546
615,"IN,St. Meinrad",1,-86.810388,38.165546
616,"IN,Upland",1,-85.497034,40.456246
617,"IN,Angola",1,-85.008009,41.632502
618,"IN,Vincennes",3,-87.52500166666668,38.68577133333333
619,"IN,Crawfordsville",1,-86.906,40.037588
620,"IA,Waterloo",2,-92.33539049999999,42.4800435
621,"IA,Sioux City",6,-96.38498666666665,42.48985316666667
622,"IA,Storm Lake",2,-95.2049705,42.648352
623,"IA,Dubuque",6,-90.68762316666668,42.50034466666667
624,"IA,Cedar Rapids",6,-91.674112,41.96622416666667
625,"IA,Pella",1,-92.92219899999999,41.401539
626,"IA,Mount Vernon",1,-91.423741,41.924554
627,"IA,Marshalltown",2,-92.91223249999999,42.0079665
628,"IA,Ankeny",2,-93.6180095,41.722215
629,"IA,Epworth",1,-90.934578,42.441721
630,"IA,Sioux Center",1,-96.166562,43.082527
631,"IA,Des Moines",7,-93.64305071428574,41.601012714285716
632,"IA,Iowa Falls",1,-93.265853,42.527524
633,"IA,Davenport",7,-90.56381685714284,41.55269057142857
634,"IA,Lamoni",1,-93.92489300000001,40.615966
635,"MO,Independence",3,-94.40693833333334,39.07527433333333
636,"IA,Grinnell",1,-92.722094,41.747952000000005
637,"IA,Mason City",3,-93.190029,43.15352333333334
638,"IA,Mt. Pleasant",1,-91.52494899999999,40.962643
639,"IA,Ottumwa",2,-92.406342,41.0342225
640,"IA,Fort Dodge",2,-94.183423,42.4952835
641,"IA,Estherville",1,-94.835661,43.401376
642,"IA,Ames",2,-93.6310575,42.011941
643,"IA,Mount Pleasant",1,-91.552459,40.973791
644,"IA,Council Bluffs",2,-95.828024,41.2538925
645,"IA,Iowa City",2,-91.5342315,41.662684
646,"IA,Cedar Falls",4,-92.44397000000001,42.503890999999996
647,"IA,Johnston",1,-93.738577,41.661015
648,"IA,Decorah",1,-91.802809,43.312304
649,"IA,Fairfield",1,-91.96730600000001,41.017781
650,"IA,Orange City",1,-96.05877199999999,42.999007
651,"IA,Calmar",1,-91.86710500000001,43.17523
652,"IA,Sheldon",1,-95.880639,43.184701000000004
653,"IA,Indianola",1,-93.56347099999999,41.365503000000004
654,"IA,West Burlington",1,-91.171881,40.814496000000005
655,"IA,Creston",1,-94.38090600000001,41.073437
656,"IA,Fayette",1,-91.799543,42.838283000000004
657,"IA,Forest City",1,-93.64171400000001,43.262923
658,"IA,Waverly",1,-92.483387,42.7277
659,"IA,Oskaloosa",1,-92.647095,41.310111
660,"KS,Iola",1,-95.396377,37.938038
661,"KS,Baldwin City",1,-95.188231,38.777278
662,"KS,Topeka",5,-95.71796359999999,39.037792800000005
663,"KS,Overland Park",10,-94.6829505,38.9366726
664,"KS,Great Bend",1,-98.73164799999999,38.403529
665,"KS,Atchison",1,-95.111473,39.572646
666,"KS,Lindsborg",1,-97.67367,38.580597999999995
667,"KS,North Newton",1,-97.34325600000001,38.075169
668,"KS,El Dorado",1,-96.882987,37.806699
669,"KS,McPherson",2,-97.6557965,38.3647
670,"KS,Concordia",1,-97.664147,39.554199
671,"KS,Coffeyville",2,-95.627937,37.035765999999995
672,"KS,Columbus",1,-94.84810999999999,37.169173
673,"KS,Colby",1,-101.05274399999999,39.377601
674,"KS,Arkansas City",1,-97.043075,37.061668
675,"KS,Dodge City",1,-100.037481,37.776891
676,"KS,Kansas City",2,-94.69936899999999,39.1170835
677,"KS,Emporia",2,-96.201581,38.416832
678,"KS,Hays",2,-99.326563,38.878514499999994
679,"KS,Haviland",1,-99.105351,37.62012
680,"KS,Wichita",11,-97.33665245454546,37.69873718181819
681,"KS,Fort Scott",1,-94.715334,37.816206
682,"KS,Garden City",2,-100.8486435,37.9703385
683,"KS,Lawrence",3,-95.238523,38.95441033333333
684,"KS,Hesston",1,-97.433883,38.134558
685,"KS,Highland",1,-95.271539,39.859987
686,"KS,Hutchinson",1,-97.92135,38.068034999999995
687,"KS,Independence",1,-95.720518,37.195614
688,"MO,Kansas City",24,-94.55589954166668,39.037633125000006
689,"KS,Manhattan",4,-96.5961005,39.19074425000001
690,"KS,Salina",3,-97.617472,38.815725666666665
691,"KS,Parsons",1,-95.255368,37.339062
692,"KS,Olathe",1,-94.781635,38.875615
693,"KS,Chanute",1,-95.46497600000001,37.670671999999996
694,"KS,Beloit",1,-98.110826,39.482419
695,"KS,Goodland",1,-101.70022,39.346424
696,"KS,Ottawa",2,-95.26417599999999,38.602762
697,"KS,Pittsburg",1,-94.702473,37.392071
698,"KS,Pratt",1,-98.714538,37.654451
699,"KS,Leavenworth",1,-94.906743,39.279396000000006
700,"KS,Liberal",1,-100.917695,37.059807
701,"KS,Winfield",1,-96.97540500000001,37.248608000000004
702,"KS,Sterling",1,-98.20864399999999,38.219937
703,"KS,Hillsboro",1,-97.200949,38.348606
704,"KY,Pippa Passes",1,-82.875068,37.335087
705,"KY,Wilmore",2,-84.66136650000001,37.861795
706,"KY,Ashland",2,-82.6420075,38.4721755
707,"KY,Nicholasville",1,-84.580326,37.866361
708,"KY,Louisville",20,-85.68195835,38.21117805
709,"KY,Berea",1,-84.292893,37.57202
710,"KY,Bowling Green",7,-86.45131157142859,36.96912185714286
711,"IN,Greenfield",1,-85.792691,39.784594
712,"IN,Plainfield",1,-86.37289799999999,39.699248
713,"KY,Owensboro",4,-87.10835025,37.73793125
714,"KY,Campbellsville",1,-85.348943,37.343342
715,"KY,Lexington",9,-84.49520866666666,38.01608100000001
716,"KY,Danville",1,-84.779392,37.645709000000004
717,"KY,Pineville",1,-83.72770200000001,36.725235999999995
718,"KY,Williamsburg",1,-84.16164599999999,36.737048
719,"KY,Richmond",3,-84.31690233333332,37.783569
720,"KY,Elizabethtown",3,-85.88033666666666,37.697773000000005
721,"KY,Hyden",1,-83.37937,37.165605
722,"KY,Georgetown",1,-84.55376700000001,38.207615000000004
723,"KY,Glasgow",1,-85.922275,37.012713
724,"KY,Hazard",2,-83.190471,37.2603965
725,"KY,Henderson",1,-87.650091,37.797686999999996
726,"KY,Hopkinsville",2,-87.4815355,36.8583395
727,"KY,Jackson",1,-83.438765,37.603443
728,"KY,Frankfort",1,-84.855402,38.201427
729,"KY,Grayson",1,-82.945561,38.338805
730,"KY,Columbia",1,-85.29999699999999,37.101502
731,"KY,Madisonville",1,-87.512137,37.362660999999996
732,"KY,Maysville",1,-83.806786,38.626607
733,"KY,Midway",1,-84.67814200000001,38.146126
734,"KY,Morehead",1,-83.434021,38.186768
735,"KY,Murray",1,-88.323629,36.612419
736,"KY,Florence",4,-84.63634175,38.993758
737,"KY,Highland Heights",1,-84.463483,39.029714
738,"KY,Paducah",1,-88.658762,37.054081
739,"KY,Pikeville",1,-82.521063,37.479232
740,"KY,Prestonsburg",1,-82.778847,37.688248
741,"KY,Somerset",1,-84.61754599999999,37.059599
742,"KY,Cumberland",1,-82.997661,36.966051
743,"KY,Crestview Hills",1,-84.568923,39.022963
744,"KY,Versailles",1,-84.72788,38.058771
745,"KY,Barbourville",1,-83.88847700000001,36.870875
746,"LA,Alexandria",4,-92.44913475,31.2578215
747,"LA,Shreveport",13,-93.76820661538461,32.45997215384615
748,"LA,Baton Rouge",26,-91.10663288461538,30.440469076923073
749,"LA,Bossier City",3,-93.70008466666667,32.52397133333333
750,"LA,West Monroe",2,-92.1279625,32.5032195
751,"LA,New Orleans",17,-90.08844276470587,29.969047235294113
752,"LA,Lake Charles",6,-93.198785,30.199810333333332
753,"LA,Denham Springs",1,-90.944774,30.484636
754,"LA,Chalmette",1,-89.95888000000001,29.954190000000004
755,"LA,Grambling",1,-92.713245,32.523796999999995
756,"LA,Kenner",3,-90.23863999999999,29.99431233333333
757,"LA,Eunice",2,-92.4217355,30.484201499999998
758,"LA,Lafayette",10,-92.03885890000001,30.1948671
759,"LA,Pineville",2,-92.428438,31.3251225
760,"LA,Opelousas",1,-92.077854,30.53165
761,"LA,Ruston",1,-92.649963,32.528296999999995
762,"LA,Thibodaux",1,-90.801571,29.794486
763,"LA,Monroe",7,-92.07816199999999,32.51571171428571
764,"LA,Minden",1,-93.26302,32.586037
765,"LA,Natchitoches",1,-93.097797,31.750666
766,"LA,Covington",2,-90.09535149999999,30.4807585
767,"LA,St. Benedict",1,-90.113621,30.526778000000004
768,"LA,Slidell",2,-89.780687,30.256315
769,"LA,Houma",5,-90.7333938,29.603717
770,"LA,Schriever",1,-90.811707,29.690884000000004
771,"LA,Hammond",2,-90.474016,30.4954895
772,"LA,St Amant",1,-90.871258,30.241891
773,"LA,Destrehan",1,-90.382862,29.964853
774,"LA,St. Rose",1,-90.310872,29.95797
775,"LA,Lacombe",1,-89.89919599999999,30.379146999999996
776,"LA,Morgan City",1,-91.197848,29.690728000000004
777,"ME,Lewiston",3,-70.21158233333333,44.09893233333333
778,"ME,Bar Harbor",1,-68.221517,44.395258
779,"ME,Bangor",4,-68.77462874999999,44.81651525
780,"ME,Brunswick",1,-69.963942,43.907134
781,"ME,Auburn",1,-70.23549799999999,44.134346
782,"ME,Waterville",2,-69.664052,44.544560000000004
783,"ME,Fairfield",1,-69.61157,44.594149
784,"ME,Arundel",1,-70.503619,43.380492
785,"ME,Augusta",3,-69.78796633333333,44.332117000000004
786,"ME,Farmington",1,-70.147121,44.666911
787,"ME,Fort Kent",1,-68.58931899999999,47.250389
788,"ME,Machias",1,-67.458025,44.708803
789,"ME,Orono",2,-68.669606,44.897822500000004
790,"ME,Castine",1,-68.80434699999999,44.389654
791,"ME,Presque Isle",2,-68.0255695,46.6834765
792,"ME,Biddeford",1,-70.38535,43.458591
793,"ME,Portland",4,-70.26639425,43.660135249999996
794,"ME,Standish",1,-70.483373,43.826314
795,"ME,Westbrook",1,-70.33533100000001,43.676590000000004
796,"ME,South Portland",1,-70.229182,43.646649
797,"ME,Unity",1,-69.33227600000001,44.603165000000004
798,"ME,Calais",1,-67.243306,45.165537
799,"MD,Cumberland",1,-78.730398,39.652152
800,"MD,Arnold",1,-76.51222299999999,39.049813
801,"MD,Hagerstown",3,-77.703487,39.64811733333334
802,"MD,Baltimore",23,-76.61945169565217,39.32896365217392
803,"MD,Bowie",1,-76.759721,39.018184999999995
804,"MD,Laurel",3,-76.85349166666667,39.10405933333334
805,"MD,North East",1,-75.955949,39.642225
806,"MD,Elkton",1,-75.83231500000001,39.610875
807,"MD,La Plata",1,-77.00924499999999,38.55895
808,"MD,Wye Mills",1,-76.083668,38.952193
809,"MD,Takoma Park",1,-77.000608,38.986349
810,"MD,Salisbury",3,-75.56872500000001,38.35306966666666
811,"MD,Frederick",4,-77.41981175000001,39.42411925
812,"MD,Frostburg",1,-78.93429300000001,39.650918
813,"MD,McHenry",1,-79.342923,39.560493
814,"MD,Bel Air",2,-76.316386,39.5466215
815,"MD,Columbia",2,-76.8572135,39.194154499999996
816,"MD,Adelphi",2,-76.90092849999999,38.9587145
817,"MD,College Park",1,-76.944721,38.988178000000005
818,"MD,Princess Anne",1,-75.686852,38.207386
819,"MD,Towson",2,-76.6078785,39.398446500000006
820,"MD,Silver Spring",2,-77.04139800000002,39.0278285
821,"MD,Rockville",4,-77.1421095,39.080644
822,"MD,Emmitsburg",1,-77.351887,39.681705
823,"MD,New Carrollton",1,-76.869467,38.956205
824,"MD,Largo",1,-76.824623,38.888689
825,"MD,Timonium",1,-76.624983,39.4448
826,"MD,St. Mary's City",1,-76.429097,38.190903999999996
827,"MD,Annapolis",3,-76.505385,38.980740000000004
828,"MD,Stevenson",1,-76.70209200000001,39.421988
829,"MD,Chestertown",1,-76.06878,39.217329
830,"MD,Westminster",2,-76.9965525,39.558018000000004
831,"MA,Cambridge",5,-71.10459320000001,42.3724918
832,"MA,Boston",29,-71.0772471724138,42.34509041379311
833,"MA,Springfield",6,-72.54954583333334,42.114447500000004
834,"MA,Amherst",3,-72.52556333333332,42.36143666666667
835,"MA,Lexington",1,-72.92138,41.323386
836,"MA,Paxton",1,-71.91896,42.330542
837,"MA,Marlborough",1,-71.56728100000001,42.36775
838,"MA,Wellesley",2,-71.285331,42.2942855
839,"MA,Longmeadow",1,-72.583382,42.055088
840,"MA,Waltham",3,-71.23988133333334,42.374418666666664
841,"MA,Pittsfield",2,-73.2855825,42.454425
842,"MA,Brookline",3,-71.13488366666665,42.329056666666666
843,"MA,Chestnut Hill",2,-71.16285300000001,42.32852
844,"MA,Bridgewater",1,-70.974553,41.98749
845,"MA,Fall River",3,-71.13384633333334,41.70691866666667
846,"MA,Brockton",2,-70.99128150000001,42.081551000000005
847,"MA,West Barnstable",1,-70.337334,41.691911
848,"MA,Woburn",2,-71.13232,42.494445
849,"MA,Milton",2,-71.08740900000001,42.249463500000005
850,"MA,Northampton",2,-72.64342350000001,42.315984
851,"MA,Somerville",1,-71.082082,42.390826000000004
852,"MA,Franklin",2,-71.409695,42.0902955
853,"MA,Concord",1,-71.387244,42.462164
854,"MA,Quincy",3,-71.005482,42.257033666666665
855,"MA,Beverly",2,-70.85848899999999,42.551754
856,"MA,Fitchburg",2,-71.82524649999999,42.574473
857,"MA,Framingham",2,-71.42988199999999,42.2974595
858,"MA,Wenham",1,-70.82151,42.590567
859,"MA,South Hamilton",1,-70.846387,42.613475
860,"MA,Greenfield",1,-72.630977,42.599512
861,"MA,Newton Centre",1,-71.189226,42.325677
862,"MA,Holyoke",2,-72.634477,42.2004205
863,"MA,Newton",2,-71.223363,42.318571500000004
864,"MA,Medford",3,-71.11849366666667,42.416362666666664
865,"MA,Lowell",2,-71.31755899999999,42.6482365
866,"MA,Wellesley Hills",1,-71.263821,42.312292
867,"MA,Buzzards Bay",1,-70.624084,41.739072
868,"MA,North Andover",2,-71.1201025,42.699580999999995
869,"MA,Bedford",1,-71.27493100000001,42.524328000000004
870,"MA,South Hadley",1,-72.57551099999999,42.256838
871,"MA,Gardner",1,-71.984148,42.593142
872,"MA,New Bedford",1,-70.925187,41.671921000000005
873,"MA,Dudley",1,-71.930283,42.044033
874,"MA,North Adams",2,-73.1021535,42.6779695
875,"MA,Danvers",1,-70.96804399999999,42.590103000000006
876,"MA,Haverhill",2,-71.0641875,42.7809955
877,"MA,Weston",2,-71.31081,42.3453495
878,"MA,Roxbury Crossing",1,-71.09549,42.329249
879,"MA,Brighton",1,-71.161998,42.344146
880,"MA,Salem",1,-70.89023399999999,42.503575
881,"MA,West Boylston",1,-71.78779899999999,42.351715000000006
882,"MA,Great Barrington",1,-73.379201,42.208803
883,"MA,South Easton",1,-71.081227,42.010312
884,"MA,North Dartmouth",1,-71.004552,41.62869
885,"MA,Easton",1,-71.080632,42.05905
886,"MA,Taunton",1,-71.091966,41.901945
887,"MA,Westfield",1,-72.796503,42.132698
888,"MA,Norton",1,-71.18397900000001,41.966637
889,"MA,Williamstown",1,-73.203132,42.712725
890,"MI,Adrian",2,-84.04016100000001,41.9021075
891,"MI,Albion",1,-84.745639,42.245049
892,"MI,Hillsdale",2,-84.632312,41.926199999999994
893,"MI,Coldwater",2,-84.998985,41.954578999999995
894,"MI,Southfield",6,-83.2447125,42.468535
895,"MI,Alma",1,-84.672053,43.38004
896,"MI,Alpena",1,-83.44506899999999,45.081647
897,"MI,Berrien Springs",1,-86.355815,41.963859
898,"MI,Grand Rapids",12,-85.62108066666667,42.95904008333333
899,"MI,Owosso",2,-84.17214150000001,42.9851755
900,"MI,Allen Park",1,-83.20348100000001,42.274264
901,"MI,Auburn Hills",1,-83.249027,42.659867999999996
902,"MI,Cadillac",2,-85.392319,44.2587455
903,"MI,Clinton Township",2,-82.9334035,42.587986
904,"MI,Jackson",3,-84.419355,42.229409
905,"MI,Muskegon",2,-86.1965505,43.247231
906,"MI,Port Huron",5,-82.44702400000001,42.986757999999995
907,"MI,Flint",9,-83.71291088888887,42.99668500000001
908,"MI,Escanaba",1,-87.085228,45.772586
909,"MI,Bay City",2,-83.892774,43.613343
910,"MI,Troy",4,-83.1359635,42.559897250000006
911,"MI,Farmington Hills",2,-83.35862850000001,42.494816
912,"MI,Mount Pleasant",4,-84.76350075,43.59582125
913,"MI,Howell",1,-83.879987,42.586638
914,"MI,Ann Arbor",4,-83.68942650000001,42.266407
915,"MI,Bloomfield Hills",2,-83.24773400000001,42.5821725
916,"MI,Detroit",14,-83.10943664285715,42.36792142857143
917,"MI,Warren",2,-83.0280885,42.5007435
918,"MI,Lansing",7,-84.56423714285714,42.73297671428572
919,"MI,Midland",3,-84.23939200000001,43.62807733333333
920,"MI,Holland",3,-86.09347866666667,42.782408333333336
921,"MI,Fenton",1,-83.67163199999999,43.018855
922,"MI,Traverse City",2,-85.60225400000002,44.752431
923,"MI,Livonia",4,-83.4245335,42.411649249999996
924,"MI,Dimondale",1,-84.680079,42.672859
925,"MI,Belleville",1,-83.43883100000001,42.232671999999994
926,"MI,Royal Oak",3,-83.15228533333332,42.497044
927,"MI,University Center",2,-83.975108,43.535625499999995
928,"MI,Riverview",1,-83.191212,42.168682000000004
929,"MI,East Lansing",4,-84.47075025000001,42.72933025
930,"MI,Canton",3,-83.461856,42.31089
931,"MI,Madison Heights",2,-83.1076615,42.5167535
932,"MI,Woodhaven",1,-83.224784,42.142547
933,"MI,Ypsilanti",1,-83.622501,42.24694
934,"MI,Big Rapids",1,-85.481925,43.687723999999996
935,"MI,Centreville",1,-85.49692900000001,41.892503999999995
936,"MI,Ironwood",1,-90.165592,46.471893
937,"MI,Wyoming",1,-85.692077,42.919540999999995
938,"MI,Allendale",1,-85.889826,42.963001
939,"MI,Dearborn",2,-83.2337365,42.320963000000006
940,"MI,Battle Creek",4,-85.1996815,42.29749725
941,"MI,Grayling",1,-84.706254,44.601785
942,"MI,Monroe",2,-83.4386395,41.911592
943,"MI,Benton Harbor",1,-86.393445,42.097276
944,"MI,Sault Ste Marie",1,-84.365573,46.492849
945,"MI,Rochester Hills",2,-83.1806885,42.671047
946,"MI,Houghton",1,-88.54809200000001,47.11866
947,"MI,Harrison",1,-84.763715,43.969586
948,"MI,Sidney",1,-85.100181,43.253190999999994
949,"MI,Petoskey",1,-84.954183,45.361727
950,"MI,Marquette",1,-87.40656800000001,46.559751
951,"MI,Olivet",1,-84.923891,42.442890999999996
952,"MI,Waterford",3,-83.381018,42.67454166666667
953,"MI,Dowagiac",1,-86.08271500000001,41.965095
954,"MI,Spring Arbor",1,-84.556074,42.206568
955,"MI,Plainwell",1,-85.517049,42.504599
956,"MI,Hancock",1,-88.588756,47.127868
957,"MI,Saint Joseph",1,-86.47655,42.071099
958,"MI,Scottville",1,-86.336122,44.008511999999996
959,"MI,Kentwood",2,-85.600992,42.895831
960,"MN,Bloomington",6,-93.32299583333334,44.83646033333334
961,"MN,Alexandria",1,-95.37236899999999,45.873107
962,"MN,Anoka",1,-93.416087,45.216709
963,"MN,Coon Rapids",1,-93.351697,45.172978
964,"MN,Cambridge",1,-93.242126,45.570417
965,"MN,Austin",1,-92.995626,43.676271
966,"MN,Bemidji",3,-94.876532,47.453609666666665
967,"MN,Mankato",3,-93.98709000000001,44.160734
968,"MN,Saint Paul",12,-93.15595483333334,44.97562125000001
969,"MN,Brainerd",1,-94.21426600000001,46.345863
970,"MN,Staples",1,-94.798474,46.389171000000005
971,"MN,Northfield",2,-93.1683525,44.4619235
972,"MN,Moorhead",3,-96.75897133333332,46.85946366666667
973,"MN,Rosemount",1,-93.07805,44.737255
974,"MN,New Ulm",1,-94.472326,44.30526
975,"MN,Duluth",4,-92.10906274999999,46.8008385
976,"MN,Fergus Falls",1,-96.097321,46.289194
977,"MN,Detroit Lakes",1,-95.832883,46.826462
978,"MN,Wadena",1,-95.144425,46.440806
979,"MN,Granite Falls",1,-95.56172,44.80755
980,"MN,Saint Peter",1,-93.972196,44.323626000000004
981,"MN,Center City",1,-92.805285,45.375319
982,"MN,Brooklyn Park",3,-93.386751,45.108760999999994
983,"MN,Hibbing",1,-92.92169799999999,47.422360999999995
984,"MN,Inver Grove Heights",1,-93.055255,44.828599
985,"MN,Grand Rapids",1,-93.49555,47.241919
986,"MN,North Mankato",1,-94.047428,44.174319
987,"MN,Faribault",1,-93.287038,44.285675
988,"MN,Rochester",6,-92.47721783333334,44.0460105
989,"MN,Virginia",1,-92.549092,47.524561
990,"MN,Eveleth",1,-92.525195,47.470889
991,"MN,Crookston",1,-96.606188,47.802535999999996
992,"MN,Roseville",3,-93.17225333333333,45.01053533333334
993,"MN,St. Louis Park",1,-93.404863,44.975225
994,"MN,WOODBURY",1,-92.973998,44.924692
995,"MN,Morris",1,-95.89972900000001,45.589775
996,"MN,Saint Cloud",3,-94.16264833333332,45.56334066666667
997,"MN,Thief River Falls",1,-96.162366,48.124969
998,"MN,East Grand Forks",1,-97.016785,47.946704
999,"MN,Pine City",1,-92.968283,45.818667
1000,"MN,International Falls",1,-93.43160300000001,48.590001
1001,"MN,Saint Joseph",1,-94.319888,45.561792
1002,"MN,Collegeville",1,-94.393621,45.580075
1003,"MN,Winona",3,-91.65249666666666,44.03848300000001
1004,"MN,Saint Bonifacius",1,-93.74301899999999,44.885393
1005,"MN,St. Cloud",1,-94.206254,45.548117
1006,"MN,Eagan",1,-93.170592,44.829483
1007,"MN,Lake Elmo",1,-92.929765,44.950404
1008,"MN,Blaine",1,-93.179973,45.145769
1009,"MN,Marshall",1,-95.759548,44.45373
1010,"MN,St. Paul",1,-93.203624,44.962913
1011,"MN,Ely",1,-91.837777,47.905184000000006
1012,"MN,Willmar",1,-95.07305,45.138313000000004
1013,"MN,Red Wing",1,-92.525451,44.535738
1014,"MN,White Bear Lake",1,-92.982105,45.041823
1015,"MS,Alcorn State",1,-91.142854,31.877215999999997
1016,"MS,Jackson",12,-90.17251600000002,32.33408241666667
1017,"MS,Blue Mountain",1,-89.02924,34.672090000000004
1018,"MS,Gulfport",2,-89.0583695,30.412388
1019,"MS,Clarksdale",1,-90.568469,34.254417
1020,"MS,Wesson",1,-90.400234,31.69272
1021,"MS,Mendenhall",1,-89.79673199999999,31.918563
1022,"MS,Natchez",1,-91.40005,31.508636
1023,"MS,Greenville",1,-91.03670100000001,33.398819
1024,"MS,Cleveland",2,-90.724573,33.750081
1025,"MS,Decatur",1,-89.11370600000001,32.441164
1026,"MS,Scooba",1,-88.48351600000001,32.830246
1027,"MS,Ripley",1,-88.942133,34.755677
1028,"MS,Grenada",1,-89.825313,33.775197999999996
1029,"MS,Raymond",1,-90.41611800000001,32.256109
1030,"MS,Goodman",1,-89.915803,32.969985
1031,"MS,Fulton",1,-88.41207299999999,34.276519
1032,"MS,Ellisville",1,-89.20089499999999,31.596936
1033,"MS,Meridian",1,-88.732823,32.367354999999996
1034,"MS,Moorhead",1,-90.502053,33.444906
1035,"MS,University",1,-89.53743399999999,34.365528999999995
1036,"MS,Columbus",1,-88.418601,33.493305
1037,"MS,Itta Bena",1,-90.341274,33.514142
1038,"MS,Clinton",2,-90.328735,32.332777
1039,"MS,Laurel",2,-89.14238900000001,31.720913999999997
1040,"MS,Perkinston",1,-89.14295200000001,30.780784000000004
1041,"MS,Mississippi State",1,-88.790139,33.454852
1042,"MS,Booneville",1,-88.562609,34.668339
1043,"MS,Senatobia",1,-89.969525,34.625532
1044,"MS,Poplarville",1,-89.543052,30.844322
1045,"MS,Hattiesburg",7,-89.32115285714283,31.32329214285715
1046,"MS,Holly Springs",1,-89.446999,34.776862
1047,"MS,Summit",1,-90.44329499999999,31.295121
1048,"MS,Tougaloo",1,-90.16076,32.403014
1049,"MS,Aberdeen",1,-88.541839,33.82442
1050,"MS,Ridgeland",2,-90.1447875,32.401329
1051,"MO,Saint Louis",21,-90.30921728571428,38.64028933333333
1052,"MO,Springfield",15,-93.27144533333333,37.196971133333335
1053,"MO,Blue Springs",1,-94.272412,38.997932
1054,"MO,Cape Girardeau",5,-89.55441779999998,37.301311
1055,"MO,Moberly",2,-92.44116149999999,39.407285
1056,"MO,Fayette",2,-92.685253,39.150496999999994
1057,"MO,Warrensburg",2,-93.722284,38.76038
1058,"MO,Chillicothe",1,-93.559669,39.798864
1059,"MO,Columbia",6,-92.32708450000001,38.94408083333334
1060,"AL,Redstone Arsenal",1,-86.62875600000001,34.680483
1061,"CO,Centennial",2,-104.92231850000002,39.5795885
1062,"MO,Fort Leonard Wood",1,-92.116504,37.762473
1063,"MO,Jefferson City",4,-92.21486250000001,38.573826249999996
1064,"MO,Osage Beach",1,-92.600211,38.15939
1065,"TX,Fort Worth",11,-97.34953727272728,32.73682218181819
1066,"UT,Murray",4,-111.89816925,40.65319100000001
1067,"IL,Gurnee",1,-87.94799300000001,42.378069
1068,"WA,Marysville",1,-122.17088400000002,48.123016
1069,"MO,Rolla",5,-91.7731598,37.9439728
1070,"CA,Los Alamitos",2,-118.0556645,33.8035755
1071,"CA,NAS Lemoore",1,-119.901117,36.258946
1072,"GA,Ft. Stewart",1,-81.604674,31.857378000000004
1073,"GA,Hunter Army Airfield",1,-81.131123,32.017765000000004
1074,"NY,Syracuse",11,-76.13800336363636,43.048694909090905
1075,"WA,Oak Harbor",1,-122.67141200000002,48.337887
1076,"NY,Ft. Drum",1,-75.777602,44.036201
1077,"OK,Fort Sill",1,-98.41230999999999,34.647999
1078,"TX,Dallas",39,-96.79695243589742,32.82267997435897
1079,"MO,Waynesville",5,-92.22346359999999,37.80875579999999
1080,"GA,Kings Bay",3,-81.567371,30.809738999999997
1081,"MO,Conception",1,-94.68283100000001,40.24044
1082,"MO,Nevada",3,-94.37004933333333,37.84487466666667
1083,"MO,Neosho",2,-94.36847549999999,36.842734
1084,"MO,Canton",1,-91.529374,40.128993
1085,"MO,Union",1,-90.97809000000001,38.431845
1086,"MO,Webster Groves",1,-90.345605,38.592307
1087,"MO,Washington",1,-91.020914,38.547707
1088,"MO,Hannibal",1,-91.39094,39.729015000000004
1089,"MO,Hillsboro",1,-90.558954,38.259889
1090,"MO,Kirksville",3,-92.578648,40.18946833333333
1091,"MO,Camdenton",1,-92.732943,38.005502
1092,"MO,Lexington",1,-93.865563,39.173683000000004
1093,"MO,Saint Charles",1,-90.501286,38.785425
1094,"MO,Linn",1,-91.81425899999999,38.467698999999996
1095,"MO,Chesterfield",1,-90.542333,38.63133
1096,"MO,Fenton",2,-90.453539,38.544540999999995
1097,"MO,Park Hills",1,-90.481847,37.845199
1098,"MO,Joplin",5,-94.5050258,37.0847416
1099,"MO,Marshall",2,-93.20086700000002,39.111776500000005
1100,"MO,Saint Joseph",2,-94.79718199999999,39.762761
1101,"MO,Maryville",1,-94.883339,40.351692
1102,"MO,Point Lookout",1,-93.238174,36.616019
1103,"MO,Parkville",1,-94.679041,39.189256
1104,"MO,Poplar Bluff",2,-90.440123,36.7851735
1105,"MO,Sedalia",3,-93.262871,38.69962233333334
1106,"MO,Sikeston",1,-89.571513,36.879979
1107,"MO,Florissant",1,-90.294569,38.775771
1108,"MO,Bridgeton",1,-90.437078,38.745678000000005
1109,"KS,Leawood",1,-94.641277,38.880458000000004
1110,"MO,Bolivar",2,-93.414314,37.6130955
1111,"MO,West Plains",2,-91.8573205,36.7338205
1112,"MO,Trenton",1,-93.61735300000001,40.078096
1113,"MO,Fulton",2,-91.9528445,38.8548205
1114,"MO,Liberty",1,-94.413126,39.247844
1115,"MT,Bozeman",4,-111.0686105,45.66288075
1116,"MT,Browning",1,-113.00938700000002,48.551927
1117,"MT,Butte",3,-112.53661933333335,45.98791766666667
1118,"MT,Kalispell",2,-114.3231835,48.214295
1119,"MT,Helena",2,-112.02816000000001,46.5980775
1120,"MT,Glendive",1,-104.72548499999999,47.085396
1121,"MT,Lame Deer",1,-106.664593,45.625568
1122,"MT,Billings",4,-108.55743724999999,45.785412750000006
1123,"MT,Harlem",1,-108.75781599999999,48.484196000000004
1124,"MT,Poplar",1,-105.193021,48.113569
1125,"MT,Great Falls",3,-111.28136133333334,47.49190133333334
1126,"MT,Crow Agency",1,-107.455421,45.603781
1127,"MT,Miles City",1,-105.82652399999999,46.40526
1128,"MT,Missoula",2,-113.97939650000001,46.862074
1129,"MT,Hamilton",3,-114.16539499999999,46.25516166666666
1130,"MT,Havre",1,-109.68780600000001,48.54149
1131,"MT,Pablo",1,-114.111635,47.598592
1132,"MT,Dillon",2,-112.6402375,45.208231
1133,"NE,Fremont",2,-96.48502500000001,41.44125
1134,"NE,Bellevue",2,-95.942512,41.14587349999999
1135,"NE,Omaha",13,-96.01518807692307,41.27147553846154
1136,"NE,Lincoln",13,-96.65249623076923,40.79835661538462
1137,"NE,Grand Island",1,-98.37254899999999,40.889582
1138,"NE,Chadron",1,-103.001615,42.8199
1139,"NE,Seward",1,-97.089054,40.914853
1140,"NE,Crete",1,-96.950932,40.622952000000005
1141,"NE,Hastings",1,-98.374403,40.59025
1142,"NE,Kearney",1,-99.098699,40.701452
1143,"NE,North Platte",1,-100.748417,41.110428999999996
1144,"NE,Papillion",1,-96.09437,41.12314
1145,"NE,Macy",1,-96.35176,42.11677
1146,"NE,Norfolk",1,-97.396578,42.048646999999995
1147,"NE,Peru",1,-95.732731,40.474689
1148,"NE,Gering",1,-103.675715,41.829274
1149,"NE,Curtis",1,-100.510409,40.635453999999996
1150,"NE,Wayne",1,-97.01512199999999,42.241556
1151,"NE,Scottsbluff",1,-103.64249000000001,41.875704999999996
1152,"NE,York",1,-97.579352,40.869526
1153,"NV,Las Vegas",22,-115.19142427272728,36.126797909090904
1154,"NV,Sparks",2,-119.738662,39.5327145
1155,"NV,Henderson",6,-115.04329133333333,36.030181666666664
1156,"NV,Reno",7,-119.79815885714285,39.52013685714285
1157,"NV,Elko",1,-115.767274,40.84343
1158,"NV,Incline Village",1,-119.939125,39.244278
1159,"NV,Carson City",1,-119.79036,39.186158
1160,"NH,New London",1,-71.97580500000001,43.411663
1161,"NH,Hudson",2,-71.435936,42.761031
1162,"NH,Hanover",1,-72.289949,43.704115
1163,"NH,Laconia",2,-71.466107,43.517362500000004
1164,"NH,Somersworth",1,-70.881563,43.23004
1165,"NH,Rindge",1,-72.058011,42.78014
1166,"NH,Concord",4,-71.52482725,43.209183749999994
1167,"NH,Keene",3,-72.29805699999999,42.93592433333333
1168,"NH,Warner",1,-71.83444399999999,43.314908
1169,"NH,Bedford",1,-71.476135,42.957837
1170,"NH,Henniker",1,-71.822282,43.176403
1171,"NH,West Lebanon",1,-72.32142900000001,43.627356
1172,"NH,Manchester",7,-71.47372228571427,42.998713142857135
1173,"ME,Bridgton",2,-70.7061075,44.041993000000005
1174,"NH,Durham",1,-70.93246500000001,43.135934000000006
1175,"NH,Plymouth",1,-71.690164,43.759572999999996
1176,"NH,Berlin",1,-71.158535,44.503494
1177,"NH,Claremont",1,-72.333114,43.399046000000006
1178,"NH,Nashua",3,-71.486041,42.76113133333333
1179,"NH,Portsmouth",2,-70.779564,43.073912500000006
1180,"NH,Merrimack",2,-71.48635300000001,42.8054985
1181,"NJ,Hackensack",3,-74.03889966666667,40.89215633333333
1182,"NJ,Denville",2,-74.48497800000001,40.891694
1183,"NJ,Mays Landing",1,-74.680019,39.462081
1184,"NJ,Wayne",2,-74.228021,40.91537699999999
1185,"NJ,Paramus",4,-74.065415,40.93556725
1186,"NJ,Woodland Park",1,-74.189483,40.898587
1187,"NJ,Lakewood",16,-74.2049586875,40.089521375000004
1188,"NJ,Bloomfield",4,-74.19304299999999,40.80619675
1189,"NJ,Lincroft",1,-74.132746,40.324906
1190,"NJ,Mount Laurel",1,-74.894464,39.972204999999995
1191,"NJ,Caldwell",1,-74.272571,40.832753000000004
1192,"NJ,Blackwood",2,-75.05001999999999,39.7964075
1193,"NJ,Hackettstown",1,-74.83364399999999,40.847640000000006
1194,"NJ,Parsippany",1,-74.381367,40.861433
1195,"NJ,Iselin",2,-74.317375,40.5605555
1196,"NJ,CLIFTON",1,-74.130158,40.873515999999995
1197,"NJ,Clifton",2,-74.145826,40.8809045
1198,"NJ,Randolph",1,-74.57987299999999,40.859140999999994
1199,"NJ,Vineland",1,-75.057829,39.440537
1200,"NJ,ERIAL",1,-75.000877,39.747926
1201,"NJ,Madison",2,-74.42835249999999,40.7681635
1202,"NJ,South Plainfield",3,-74.42265433333334,40.54940066666667
1203,"NJ,Newark",7,-74.179967,40.73870228571429
1204,"NJ,Union",5,-74.25668,40.692927
1205,"NJ,Teaneck",1,-74.028986,40.897209000000004
1206,"NJ,Lodi",1,-74.096452,40.867272
1207,"NJ,Paterson",2,-74.16067950000001,40.913913
1208,"NJ,Glassboro",1,-75.119119,39.709108
1209,"NJ,Sewell",1,-75.121269,39.781339
1210,"NJ,Cherry Hill",5,-75.0228736,39.92698539999999
1211,"NJ,Ramsey",1,-74.131486,41.057866
1212,"NJ,Englewood Cliffs",1,-73.948887,40.874956
1213,"NJ,Jersey City",9,-74.06351577777778,40.728578
1214,"NJ,Dover",1,-74.552663,40.887315
1215,"NJ,Voorhees",3,-74.99670633333334,39.848946666666656
1216,"NJ,West Windsor",1,-74.650719,40.254397999999995
1217,"NJ,Edison",3,-74.36817233333333,40.52558833333333
1218,"NJ,West Long Branch",2,-74.01712699999999,40.2897425
1219,"NJ,Montclair",1,-74.198141,40.860414
1220,"NJ,Plainfield",2,-74.40429300000001,40.605982
1221,"NJ,Nutley",1,-74.144192,40.810742
1222,"NJ,New Brunswick",2,-74.4478095,40.5000415
1223,"NJ,West New York",1,-74.018286,40.786079
1224,"NJ,Toms River",3,-74.194002,40.01248666666667
1225,"NJ,Gloucester",1,-75.126308,39.898804999999996
1226,"NJ,Princeton",2,-74.6629075,40.3472905
1227,"NJ,Morristown",2,-74.4685005,40.7937625
1228,"NJ,Mahwah",2,-74.16146599999999,41.0823565
1229,"NJ,Lawrenceville",2,-74.7284675,40.269803499999995
1230,"NJ,Camden",1,-75.12224,39.948064
1231,"NJ,Trenton",3,-74.75076366666666,40.217867333333324
1232,"NJ,Carneys Point",1,-75.47013000000001,39.698756
1233,"NJ,South Orange",1,-74.246027,40.742336
1234,"NJ,Egg Harbor Township",1,-74.61349799999999,39.433238
1235,"NJ,Branchburg",1,-74.68812700000001,40.609681
1236,"NJ,Hoboken",1,-74.025334,40.744776
1237,"NJ,Galloway",1,-74.531087,39.492036
1238,"NJ,Adelphia",1,-74.250167,40.217456
1239,"NJ,Teterboro",2,-74.064905,40.851701
1240,"NJ,Ewing",2,-74.790832,40.266910499999994
1241,"NJ,Cranford",1,-74.319138,40.668595
1242,"NM,Alamogordo",2,-105.93781949999999,32.9102645
1243,"NM,Crownpoint",1,-108.14939199999999,35.687431
1244,"NM,Las Cruces",5,-106.7450648,32.3083888
1245,"NM,Clovis",1,-103.165886,34.402483000000004
1246,"NM,Portales",1,-103.34819,34.175592
1247,"NM,Roswell",2,-104.525083,33.361391999999995
1248,"NM,Santa Fe",6,-105.98415349999999,35.63609633333333
1249,"NM,Las Vegas",2,-105.23503099999999,35.606268
1250,"NM,Hobbs",2,-103.184922,32.76665200000001
1251,"NM,Gallup",1,-108.72725200000001,35.502662
1252,"NM,Socorro",1,-106.90521100000001,34.067040999999996
1253,"NM,Los Alamos",1,-106.319557,35.886153
1254,"NM,Carlsbad",1,-104.265536,32.442028
1255,"NM,Grants",1,-107.84363799999998,35.165965
1256,"NM,Los Lunas",1,-106.705371,34.728683000000004
1257,"NM,Espanola",1,-106.084395,36.004073
1258,"NM,Farmington",1,-108.169468,36.770446
1259,"NM,Ranchos de Taos",1,-105.65170900000001,36.348861
1260,"NM,Tucumcari",1,-103.736303,35.170332
1261,"NM,Silver City",1,-108.28328400000001,32.7767
1262,"NY,Flushing",7,-73.8365942857143,40.75791328571428
1263,"NY,Garden City",2,-73.6243035,40.7251555
1264,"NY,Queensbury",1,-73.654813,43.351839
1265,"NY,Albany",16,-73.7979843125,42.679506875
1266,"NY,Alfred",2,-77.791369,42.254869
1267,"NY,Brooklyn",53,-73.97193679245284,40.6432730754717
1268,"NY,New York",86,-73.98455581395349,40.754601186046514
1269,"NY,Long Island City",5,-73.9365124,40.7464078
1270,"NY,Elmira",3,-76.82709733333333,42.11600466666667
1271,"NY,Annandale-On-Hudson",1,-73.909927,42.020386
1272,"NY,Coxsackie",1,-73.836821,42.343651
1273,"NY,Napanoch",1,-74.363102,41.741299
1274,"NY,Beacon",1,-73.950868,41.522043
1275,"NY,Stormville",1,-73.716978,41.580923999999996
1276,"NY,Bedford Hill",1,-73.678685,41.244244
1277,"NY,Woodbourne",1,-74.592771,41.754051000000004
1278,"NY,White Plains",3,-73.766339,41.03240400000001
1279,"NY,Forest Hills",2,-73.83818450000001,40.712315000000004
1280,"NY,Levittown",3,-73.50544166666667,40.726244333333334
1281,"NY,Bronx",10,-73.8908239,40.860256
1282,"NY,Binghamton",3,-75.92003666666666,42.11769133333333
1283,"NY,Getzville",2,-78.742816,43.0408405
1284,"NY,Liverpool",3,-76.209341,43.135292666666665
1285,"NY,Buffalo",11,-78.85024800000001,42.91318290909092
1286,"NY,Orchard Park",3,-78.76939066666667,42.79018566666667
1287,"NY,Rochester",20,-77.63189024999998,43.14077669999999
1288,"NY,Nanuet",1,-74.022421,41.099090000000004
1289,"NY,Rego Park",2,-73.8584025,40.7291895
1290,"NY,Auburn",2,-76.56542400000001,42.942813
1291,"NY,Cazenovia",1,-75.85488199999999,42.932489000000004
1292,"NY,Niagara Falls",1,-78.983526,43.106577
1293,"NY,East Aurora",1,-78.660311,42.77089
1294,"NY,Potsdam",2,-74.986587,44.662431999999995
1295,"NY,Schenectady",6,-73.92899933333332,42.80696866666667
1296,"NY,Plattsburgh",4,-73.4734445,44.68362425
1297,"NY,Yonkers",2,-73.8550315,40.9692545
1298,"NY,Hamilton",1,-75.536346,42.819475
1299,"NY,Hudson",1,-73.818113,42.217613
1300,"NY,Astoria",2,-73.92205200000001,40.757152500000004
1301,"NY,Bronxville",2,-73.8328735,40.939441
1302,"NY,Ithaca",3,-76.49113366666667,42.43623466666667
1303,"NY,Corning",1,-77.072138,42.116735999999996
1304,"NY,Hyde Park",1,-73.933231,41.745806
1305,"CA,St. Helena",1,-122.484769,38.514503000000005
1306,"TX,San Antonio",49,-98.53656785714286,29.468398408163264
1307,"NY,Staten Island",6,-74.1176175,40.6097545
1308,"NY,Queens",2,-73.806101,40.7288525
1309,"NY,Bayside",1,-73.756656,40.755481
1310,"NY,Jamaica",3,-73.79106666666667,40.703781
1311,"NY,Amherst",1,-78.788111,42.965605
1312,"NY,Far Rockaway",3,-73.75331899999999,40.60114666666667
1313,"NY,Orangeburg",1,-73.95055500000001,41.047419
1314,"NY,Poughkeepsie",4,-73.90052475,41.71890375
1315,"NY,Vestal",2,-75.97091950000001,42.0924165
1316,"NY,Canandaigua",1,-77.241801,42.867556
1317,"NY,Dix Hills",1,-73.369348,40.794506
1318,"NY,Johnstown",1,-74.297492,42.983805
1319,"NY,Batavia",2,-78.1602475,43.0156245
1320,"NY,Clinton",1,-75.40819499999999,43.050245000000004
1321,"NY,Oneonta",3,-75.01928366666665,42.505203333333334
1322,"NY,Herkimer",1,-75.00720600000001,43.032738
1323,"NY,Hamburg",1,-78.820257,42.75464
1324,"NY,Geneva",3,-76.98742066666667,42.870740000000005
1325,"NY,Hempstead",4,-73.61527425,40.708248
1326,"NY,Houghton",1,-78.155426,42.426137
1327,"NY,Troy",4,-73.6825605,42.724392
1328,"NY,New Rochelle",2,-73.78457499999999,40.912576
1329,"NY,Amityville",2,-73.42237,40.689903
1330,"NY,Jamestown",2,-79.234284,42.105026
1331,"NY,Salamanca",1,-78.742325,42.157154
1332,"NY,Watertown",2,-75.9525955,43.981671
1333,"NY,Ossining",1,-73.814887,41.220521000000005
1334,"NY,Keuka Park",1,-77.090562,42.615253
1335,"NY,Brookville",1,-73.593678,40.820714
1336,"NY,Riverdale",2,-73.90649450000001,40.893212
1337,"NY,Purchase",2,-73.7088,41.039705
1338,"NY,Dobbs Ferry",1,-73.874447,41.021626
1339,"NY,Harrison",1,-73.74167,40.973637
1340,"NY,Ridgewood",1,-73.909144,40.699588
1341,"NY,Utica",5,-75.2515676,43.095242999999996
1342,"NY,Rockville Centre",1,-73.626183,40.685941
1343,"NY,Newburgh",1,-74.01265500000001,41.513872
1344,"NY,Mount Vernon",2,-73.8391665,40.912304500000005
1345,"NY,New York City",1,-73.96533199999999,40.756613
1346,"NY,Seneca Falls",1,-76.756232,42.91173
1347,"NY,Valhalla",2,-73.7998555,41.076744500000004
1348,"ID,Post Falls",1,-116.891898,47.712401
1349,"NY,Sanborn",2,-78.8711635,43.146880499999995
1350,"NY,Niagara University",1,-79.036689,43.137279
1351,"NY,Peekskill",2,-73.90429950000001,41.28010450000001
1352,"NY,Saranac Lake",1,-74.11998100000001,44.318645000000004
1353,"NY,Old Westbury",2,-73.5898535,40.805734
1354,"NY,Middletown",2,-74.427037,41.431625
1355,"NY,Paul Smiths",1,-74.252675,44.433965
1356,"NY,West Seneca",2,-78.770502,42.8399915
1357,"NY,Johnson City",1,-75.967044,42.10601
1358,"NY,Long Beach",1,-73.670238,40.586427
1359,"NY,Richmond Hill",2,-73.836262,40.70069
1360,"NY,Suffern",2,-74.088064,41.1287745
1361,"NY,Saint Bonaventure",1,-78.481107,42.080191
1362,"NY,Brooklyn Heights",1,-73.992164,40.693228000000005
1363,"NY,Canton",2,-75.1721245,44.5969875
1364,"NY,Sparkill",1,-73.936799,41.041576
1365,"NY,Lawrence",1,-73.740085,40.605227
1366,"NY,Loudonville",1,-73.7526,42.717602
1367,"NY,Saratoga Springs",2,-73.7839095,43.087159
1368,"NY,Patchogue",1,-73.024661,40.775933
1369,"NY,Bohemia",1,-73.093869,40.777825
1370,"NY,Loch Sheldrake",1,-74.66776899999999,41.7641
1371,"NY,Delhi",1,-74.924612,42.269859000000004
1372,"NY,Cobleskill",1,-74.49825799999999,42.672534000000006
1373,"NY,Farmingdale",1,-73.42832,40.754224
1374,"NY,Morrisville",1,-75.64058299999999,42.893962
1375,"NY,Stony Brook",1,-73.12046,40.91476
1376,"NY,Brockport",1,-77.947188,43.211926
1377,"NY,Cortland",1,-76.18865500000001,42.598022
1378,"NY,Fredonia",1,-79.337375,42.452236
1379,"NY,Geneseo",1,-77.821894,42.796645
1380,"NY,New Paltz",1,-74.082188,41.740936
1381,"NY,Oswego",1,-76.540798,43.454287
1382,"NY,Throggs Neck",1,-73.795309,40.807217
1383,"NY,Dryden",1,-76.287586,42.502006
1384,"NY,Stone Ridge",1,-74.128698,41.851217999999996
1385,"NY,Kings Point",1,-73.76300400000001,40.81357
1386,"NY,West  Point",1,-73.956603,41.390479
1387,"NY,Glen Cove",1,-73.644909,40.884444
1388,"NY,Aurora",1,-76.696028,42.742943
1389,"NY,Pottersville",1,-73.812057,43.730713
1390,"NY,Mount Kisco",1,-73.748104,41.232287
1391,"NY,Kew Gardens",1,-73.834252,40.703795
1392,"NY,South Fallsburg",1,-74.62182299999999,41.73048
1393,"NC,Elizabeth City",3,-76.21698166666667,36.302512
1394,"NC,Polkton",1,-80.211087,35.000312
1395,"NC,Boone",1,-81.680583,36.215536
1396,"NC,Asheville",5,-82.5681718,35.5944852
1397,"NC,Wilson",3,-77.92101000000001,35.72759633333333
1398,"NC,Washington",1,-76.96535,35.533587
1399,"NC,Belmont",1,-81.041315,35.260651
1400,"NC,Greensboro",12,-79.84279766666667,36.06865225
1401,"NC,Dublin",1,-78.73111899999999,34.644690999999995
1402,"NC,Flat Rock",1,-82.42554399999999,35.308040000000005
1403,"NC,Brevard",1,-82.72949399999999,35.236763
1404,"NC,Bolivia",1,-78.22979000000001,34.038973
1405,"NC,Concord",3,-80.67427500000001,35.39194766666666
1406,"NC,Hudson",1,-81.484148,35.854603999999995
1407,"NC,Buies Creek",1,-78.738238,35.409149
1408,"NC,Wilmington",4,-77.90307575,34.230642
1409,"NC,Charlotte",20,-80.85106415,35.199064
1410,"NC,Morehead City",1,-76.755538,34.723681
1411,"NC,Salisbury",4,-80.48229,35.661577750000006
1412,"NC,Hickory",2,-81.307759,35.719849999999994
1413,"NC,Sanford",1,-79.143553,35.471864000000004
1414,"NC,Murfreesboro",1,-77.099141,36.436258
1415,"NC,Shelby",1,-81.492856,35.279833
1416,"NC,Jacksonville",2,-77.39931250000001,34.7625575
1417,"NC,New Bern",1,-77.102232,35.111515999999995
1418,"NC,Thomasville",1,-80.18186800000001,35.865471
1419,"NC,Davidson",1,-80.843979,35.499767
1420,"NC,Durham",9,-78.90209477777778,35.96966155555556
1421,"NC,Greenville",2,-77.36999349999999,35.606074
1422,"NC,Tarboro",1,-77.571786,35.879867
1423,"NC,Elon",1,-79.50344,36.104147999999995
1424,"NC,Fayetteville",7,-78.91898057142858,35.081221000000006
1425,"NC,Winston-Salem",7,-80.25849085714286,36.09795757142857
1426,"NC,Boiling Springs",1,-81.668141,35.24732
1427,"NC,Dallas",2,-81.1901255,35.3101135
1428,"NC,Jamestown",1,-79.92062,35.998459999999994
1429,"NC,Weldon",1,-77.617681,36.427712
1430,"NC,Clyde",1,-82.927918,35.525905
1431,"NC,Dunn",1,-78.664393,35.307368
1432,"NC,High Point",2,-79.97911099999999,36.006237999999996
1433,"NC,Spindale",1,-81.911857,35.336728
1434,"NC,Kenansville",1,-77.977639,34.946802000000005
1435,"NC,Smithfield",1,-78.332293,35.501418
1436,"NC,Banner Elk",1,-81.87337099999999,36.162477
1437,"NC,Kinston",1,-77.57153199999999,35.234404999999995
1438,"NC,Louisburg",1,-78.29898,36.105035
1439,"NC,Mars Hill",1,-82.551827,35.82752
1440,"NC,Williamston",1,-77.094913,35.836304
1441,"NC,Spruce Pine",1,-82.016988,35.934475
1442,"NC,Marion",1,-81.96208,35.656254
1443,"NC,Raleigh",16,-78.651565,35.807726187499995
1444,"NC,Statesville",1,-80.894083,35.782814
1445,"NC,Troy",1,-79.870005,35.367107
1446,"NC,Montreat",1,-82.2976,35.646577
1447,"NC,Mount Olive",1,-78.069388,35.208166
1448,"NC,Rocky Mount",2,-77.836165,35.998244
1449,"NC,Chapel Hill",3,-79.03580833333332,35.91616533333333
1450,"NC,Winston Salem",2,-80.24596199999999,36.1111755
1451,"NC,Grantsboro",1,-76.83372,35.068397999999995
1452,"NC,Pembroke",1,-79.200347,34.688313
1453,"NC,Misenheimer",1,-80.283168,35.484696
1454,"NC,Roxboro",1,-78.98060699999999,36.431674
1455,"NC,Winterville",1,-77.40720300000001,35.550591
1456,"NC,Asheboro",1,-79.828538,35.672814
1457,"NC,Hamlet",1,-79.70964000000001,34.905252000000004
1458,"NC,Ahoskie",1,-77.023662,36.324827
1459,"NC,Lumberton",1,-79.00664,34.675194
1460,"NC,Wentworth",1,-79.758353,36.388682
1461,"NC,Clinton",1,-78.361136,34.99086
1462,"NC,Pinehurst",1,-79.40635,35.220086
1463,"NC,Laurinburg",1,-79.478567,34.74563
1464,"NC,Whiteville",1,-78.783365,34.331749
1465,"NC,Sylva",1,-83.20712900000001,35.348575
1466,"NC,Albemarle",1,-80.236303,35.339895
1467,"NC,Wake Forest",1,-78.513755,35.981858
1468,"NC,Dobson",1,-80.71683399999999,36.384334
1469,"NC,Graham",1,-79.35765699999999,36.066683000000005
1470,"NC,Murphy",1,-83.966476,35.067021000000004
1471,"NC,Henderson",1,-78.487651,36.323887
1472,"NC,Swannanoa",1,-82.442619,35.610328
1473,"NC,Goldsboro",1,-77.94587299999999,35.403079
1474,"NC,Morganton",1,-81.687345,35.722876
1475,"NC,Wilkesboro",1,-81.182994,36.136617
1476,"NC,Wingate",1,-80.44305,34.986064
1477,"NC,Cullowhee",1,-83.186258,35.308979
1478,"ND,Fargo",6,-96.82579483333335,46.86941016666666
1479,"ND,Bismarck",6,-100.76841533333334,46.776301999999994
1480,"ND,Dickinson",1,-102.799679,46.882917
1481,"ND,New Town",1,-102.472814,47.983311
1482,"ND,Grand Forks",2,-97.058073,47.9109715
1483,"ND,Jamestown",1,-98.69841600000001,46.914302
1484,"ND,Devils Lake",1,-98.869034,48.127947999999996
1485,"ND,Fort Totten",1,-98.990801,47.978122
1486,"ND,Mayville",1,-97.322554,47.505415
1487,"ND,Minot",1,-101.29861,48.246961
1488,"ND,Wahpeton",1,-96.60737900000001,46.272158000000005
1489,"ND,Bottineau",1,-100.441103,48.832505
1490,"ND,Williston",1,-103.613066,48.158603
1491,"ND,Fort Yates",1,-100.674735,46.085288
1492,"ND,Ellendale",1,-98.51790600000001,46.001037
1493,"ND,Belcourt",1,-99.75083599999999,48.883758
1494,"ND,Valley City",1,-98.00389,46.918517
1495,"OH,Niles",3,-80.73256933333333,41.19883000000001
1496,"OH,Cincinnati",26,-84.48511073076922,39.192334384615386
1497,"OH,Wright-Patterson AFB",1,-84.08261800000001,39.782221
1498,"OH,Akron",3,-81.52697933333333,41.073529666666666
1499,"OH,Orrville",1,-81.789979,40.861519
1500,"OH,Salem",3,-80.849245,40.87790266666667
1501,"OH,Lima",6,-84.11167483333334,40.731077166666665
1502,"OH,Ashland",2,-82.2939345,40.8313865
1503,"OH,Jefferson",1,-80.733023,41.746864
1504,"OH,Concord Twp",1,-81.243798,41.649238000000004
1505,"OH,Canton",6,-81.40775433333333,40.82877083333333
1506,"OH,Berea",1,-81.85114499999999,41.373017
1507,"OH,St Clairsville",1,-80.964901,40.07695
1508,"OH,Bluffton",1,-83.899439,40.895606
1509,"OH,Ravenna",2,-81.245473,41.167989000000006
1510,"OH,Huron",1,-82.59415600000001,41.397521000000005
1511,"OH,Bowling Green",1,-83.640896,41.375513
1512,"OH,Parma",1,-81.781757,41.404607
1513,"OH,Copley",2,-81.6551115,41.128234500000005
1514,"OH,Solon",2,-81.44593649999999,41.390024499999996
1515,"OH,Cleveland",12,-81.64300608333333,41.49041066666666
1516,"OH,Rio Grande",2,-82.3834475,38.8869725
1517,"OH,Monroe",1,-84.431434,39.441140000000004
1518,"OH,Columbus",21,-82.96316652380953,40.00740238095237
1519,"OH,Cedarville",1,-83.81469200000001,39.749237
1520,"OH,Newark",3,-82.44135233333333,40.07953366666666
1521,"OH,Independence",1,-81.656988,41.397093
1522,"OH,Wilberforce",3,-83.881884,39.712787999999996
1523,"OH,Saint Martin",1,-83.887153,39.210369
1524,"OH,Youngstown",2,-80.6454915,41.102887499999994
1525,"OH,Batavia",1,-84.19436999999999,39.080645000000004
1526,"OH,Blue Ash",1,-84.399956,39.234333
1527,"OH,Circleville",1,-82.904885,39.613155
1528,"OH,Springfield",2,-83.8076165,39.91522
1529,"WV,Wheeling",3,-80.71129366666668,40.066294
1530,"OH,Lisbon",1,-80.747828,40.768063
1531,"OH,Toledo",8,-83.629836875,41.664992125
1532,"OH,Miamisburg",1,-84.222996,39.628935999999996
1533,"OH,Dayton",10,-84.1709374,39.7581325
1534,"OH,Defiance",1,-84.357075,41.296842
1535,"OH,Granville",1,-82.52327199999999,40.071505
1536,"OH,Piqua",2,-84.2131655,40.159453
1537,"OH,Milan",1,-82.630439,41.332654999999995
1538,"OH,Findlay",2,-83.651512,41.052904
1539,"OH,Tiffin",3,-83.17613266666666,41.115882
1540,"OH,Hiram",1,-81.14398100000001,41.3107
1541,"OH,Troy",1,-84.219809,40.053024
1542,"OH,Nelsonville",2,-82.21567250000001,39.437578
1543,"OH,Steubenville",3,-80.65506133333332,40.376423
1544,"OH,University Heights",1,-81.531338,41.491321
1545,"OH,Westerville",5,-82.92231999999998,40.109913600000006
1546,"OH,Austintown",1,-80.775293,41.102228000000004
1547,"OH,Ashtabula",1,-80.830377,41.888296000000004
1548,"OH,East Liverpool",3,-80.575721,40.638535999999995
1549,"OH,Warren",2,-80.83051999999999,41.279698499999995
1550,"OH,New Philadelphia",2,-81.404832,40.4691335
1551,"OH,Kent",2,-81.335746,41.149757
1552,"OH,Burton",1,-81.143085,41.483727
1553,"OH,Gambier",1,-82.397977,40.374408
1554,"OH,Kettering",3,-84.151205,39.69249233333334
1555,"OH,Beavercreek",1,-84.08404399999999,39.693918
1556,"OH,Painesville",1,-81.251817,41.717841
1557,"OH,Kirtland",1,-81.364723,41.637463000000004
1558,"OH,Chesapeake",1,-82.473516,38.491898
1559,"OH,Sheffield Village",1,-82.073403,41.423809000000006
1560,"OH,Sandusky",3,-82.697113,41.42907733333333
1561,"OH,Elyria",2,-82.08962550000001,41.399868999999995
1562,"OH,Sylvania",3,-83.68492266666667,41.710217
1563,"OH,Marietta",3,-81.461675,39.42683133333333
1564,"OH,Marion",4,-83.09436,40.581581
1565,"OH,Medina",2,-81.815167,41.145458
1566,"OH,Delaware",2,-83.0649515,40.274803
1567,"OH,Hamilton",1,-84.563385,39.377448
1568,"OH,Middletown",1,-84.35724,39.523776
1569,"OH,Oxford",1,-84.732954,39.507757
1570,"OH,Englewood",1,-84.328951,39.845377
1571,"OH,Lancaster,",1,-82.57754,39.71779
1572,"OH,Alliance",3,-81.12478,40.90638966666666
1573,"OH,Mount Vernon",2,-82.4730955,40.374395
1574,"OH,Zanesville",3,-82.01277233333333,39.953527333333334
1575,"OH,New Concord",1,-81.73703,39.996426
1576,"OH,Mansfield",3,-82.54089599999999,40.789880333333336
1577,"OH,Lorain",1,-82.17434200000001,41.465263
1578,"OH,Archbold",2,-84.30048500000001,41.451702000000004
1579,"OH,Rootstown",1,-81.245302,41.102919
1580,"OH,Oberlin",2,-82.2153235,41.277087
1581,"OH,Ada",1,-83.82744100000001,40.7662
1582,"OH,Wooster",2,-81.928805,40.792827
1583,"OH,CANAL WINCHESTER",1,-82.83196600000001,39.856608
1584,"OH,Saint Clairsville",1,-80.976073,40.073392
1585,"OH,Chillicothe",2,-83.0024375,39.3460025
1586,"OH,Ironton",1,-82.666876,38.524781
1587,"OH,Lancaster",1,-82.586069,39.738752000000005
1588,"OH,Athens",1,-82.100985,39.326798
1589,"OH,Perrysburg",4,-83.58225575,41.5681915
1590,"OH,Portsmouth",3,-82.98909433333334,38.738486
1591,"OH,Brecksville",2,-81.63521550000002,41.316708500000004
1592,"OH,Maumee",2,-83.677725,41.583335000000005
1593,"OH,Wickliffe",1,-81.485261,41.593533
1594,"OH,Centerville",1,-84.146046,39.644364
1595,"OH,North Canton",2,-81.40447400000001,40.8722525
1596,"OH,Hillsboro",1,-83.614085,39.236924
1597,"OH,Fremont",2,-83.14299349999999,41.3595835
1598,"OH,South Point",1,-82.579887,38.426238
1599,"OH,Urbana",1,-83.760301,40.102594
1600,"OH,Pepper Pike",1,-81.465118,41.497035
1601,"OH,Lakewood",1,-81.769767,41.484253
1602,"OH,Wilmington",1,-83.818342,39.444744
1603,"PA,Scotland",1,-77.59402800000001,39.967569
1604,"OH,Celina",1,-84.509194,40.546074
1605,"OK,Muskogee",3,-95.34205433333334,35.767711
1606,"OK,Bartlesville",1,-95.95671,36.717453000000006
1607,"OK,Bethany",2,-97.634422,35.513304500000004
1608,"OK,Broken Arrow",1,-95.79791999999999,36.049093
1609,"OK,Ada",2,-96.673832,34.760166999999996
1610,"OK,Lawton",5,-98.4123536,34.603920599999995
1611,"OK,Poteau",2,-94.634024,35.0416725
1612,"OK,Oklahoma City",11,-97.55502381818182,35.50250536363637
1613,"OK,Edmond",2,-97.470517,35.633306000000005
1614,"OK,Warner",1,-95.319541,35.492872999999996
1615,"OK,Wilburton",1,-95.32899499999999,34.914079
1616,"OK,El Reno",2,-97.9282795,35.5138415
1617,"OK,Enid",2,-97.91215600000001,36.4061945
1618,"OK,Moore",2,-97.484778,35.3199555
1619,"OK,Langston",1,-97.260317,35.943982
1620,"OK,Tishomingo",1,-96.67790600000001,34.222949
1621,"OK,Tulsa",16,-95.90339793750002,36.113586500000004
1622,"OK,Tahlequah",3,-94.97340700000001,35.91857566666666
1623,"OK,Tonkawa",1,-97.295887,36.678649
1624,"OK,Miami",1,-94.867248,36.877255
1625,"OK,Alva",2,-98.671692,36.7916955
1626,"OK,Goodwell",1,-101.638488,36.594518
1627,"OK,Stillwater",2,-97.0890785,36.115033
1628,"OK,Shawnee",4,-96.91361475,35.38976975
1629,"OK,Norman",2,-97.45076499999999,35.2419205
1630,"GA,Ft Benning",1,-84.920774,32.37174
1631,"NV,Nellis AFB",2,-115.041141,36.242056
1632,"OK,Okmulgee",3,-95.93777066666667,35.631717333333334
1633,"OK,Claremore",2,-95.63493600000001,36.3241295
1634,"OK,Midwest City",2,-97.4083455,35.4494785
1635,"OK,Jenks",1,-95.975154,36.023435
1636,"OK,Chickasha",1,-97.95640999999999,35.031392
1637,"OK,Seminole",1,-96.70490799999999,35.249515
1638,"OK,Durant",2,-96.37702250000001,33.998996000000005
1639,"OK,Weatherford",1,-98.707768,35.535281
1640,"OK,Altus",2,-99.3390755,34.668606
1641,"OK,Woodward",2,-99.4068065,36.420559999999995
1642,"OR,Portland",27,-122.65104933333333,45.51495792592593
1643,"OR,Pendleton",1,-118.81694399999999,45.677313
1644,"OR,Bend",4,-121.326146,44.05913399999999
1645,"OR,Salem",7,-122.99133342857144,44.942159
1646,"OR,Oregon City",1,-122.574272,45.323184999999995
1647,"OR,Astoria",1,-123.82333899999999,46.183107
1648,"OR,La Grande",1,-118.092495,45.319795
1649,"OR,Eugene",4,-123.08543499999999,44.033657000000005
1650,"OR,Newberg",1,-122.96749399999999,45.303629
1651,"OR,Grants Pass",2,-123.34604300000001,42.4237125
1652,"OR,McMinnville",2,-123.1996395,45.2011605
1653,"OR,Albany",1,-123.11403,44.587663
1654,"OR,Beaverton",2,-122.806161,45.489581
1655,"OR,Medford",3,-122.86493733333334,42.34836033333333
1656,"OR,Happy Valley",2,-122.5759385,45.436953
1657,"OR,Saint Benedict",1,-122.775405,45.057871
1658,"OR,Gresham",1,-122.39697199999999,45.514862
1659,"OR,Klamath Falls",3,-121.749803,42.22567900000001
1660,"OR,Corvallis",2,-123.29265849999999,44.5569615
1661,"OR,Forest Grove",1,-123.108777,45.521394
1662,"OR,Tigard",1,-122.766574,45.433994
1663,"OR,Ashland",1,-122.695081,42.185077
1664,"OR,Coos Bay",1,-124.25223999999999,43.395327
1665,"OR,Ontario",1,-116.97448700000001,44.020811
1666,"OR,Roseburg",1,-123.332475,43.289317
1667,"CA,Milpitas",1,-121.875707,37.419994
1668,"OR,Monmouth",1,-123.23830900000002,44.852235
1669,"PA,Hazleton",2,-76.004273,40.979441
1670,"PA,Bryn Athyn",1,-75.060808,40.134392999999996
1671,"PA,Philadelphia",38,-75.1450322105263,39.991456684210526
1672,"PA,Reading",7,-75.93742985714286,40.340391857142855
1673,"PA,Essington",2,-75.3025945,39.86611
1674,"PA,Pittsburgh",28,-79.98019571428573,40.45689539285714
1675,"PA,Meadville",3,-80.14360633333335,41.642222
1676,"PA,Allentown",7,-75.49647385714287,40.605096571428575
1677,"PA,Center Valley",3,-75.40143333333334,40.54964966666666
1678,"PA,Altoona",7,-78.40194185714286,40.49450214285714
1679,"PA,Ambler",1,-75.222204,40.154233000000005
1680,"PA,King of Prussia",2,-75.386504,40.091137
1681,"PA,Exton",2,-75.664106,40.064359499999995
1682,"PA,South Abington Township",1,-75.685472,41.495062
1683,"PA,Monaca",3,-80.30559166666666,40.66989133333333
1684,"PA,Glenside",3,-75.16484633333333,40.096688666666665
1685,"PA,Bloomsburg",1,-76.44784399999999,41.00782
1686,"PA,Bryn Mawr",2,-75.31401199999999,40.024970999999994
1687,"PA,Lewisburg",3,-76.88881933333333,40.966519000000005
1688,"PA,Newtown",1,-74.965841,40.239102
1689,"PA,Perkasie",1,-75.275289,40.380967
1690,"PA,Bristol",2,-74.8737115,40.105345
1691,"PA,Feasterville",1,-75.00705400000001,40.166449
1692,"PA,Butler",2,-79.90326999999999,40.844257999999996
1693,"PA,Radnor",1,-75.375263,40.056354999999996
1694,"PA,California",1,-79.88679,40.064964
1695,"PA,Summerdale",1,-76.934461,40.3049
1696,"PA,Cheyney",1,-75.529262,39.932274
1697,"PA,Tarentum",1,-79.798934,40.573248
1698,"PA,Clarion",1,-79.377501,41.207805
1699,"PA,Johnstown",5,-78.8735854,40.28198139999999
1700,"PA,Media",4,-75.41275425,39.9273775
1701,"PA,Doylestown",1,-75.158452,40.298659
1702,"PA,Carlisle",2,-77.197824,40.201119500000004
1703,"PA,Monessen",1,-79.88846099999999,40.161519
1704,"PA,East Stroudsburg",1,-75.173905,40.99599
1705,"PA,Saint Davids",1,-75.370316,40.050447999999996
1706,"PA,Edinboro",1,-80.121318,41.870717
1707,"PA,Elizabethtown",2,-76.59322399999999,40.149236
1708,"PA,Lebanon",3,-76.41229433333335,40.330748666666665
1709,"PA,York",7,-76.70958257142857,39.98062
1710,"PA,Lancaster",10,-76.2982584,40.04663860000001
1711,"PA,Shamokin Dam",1,-76.81589100000001,40.854559
1712,"PA,Pottsville",2,-76.1877905,40.695187000000004
1713,"PA,Whitehall",1,-75.48547099999999,40.63006
1714,"PA,Moosic",1,-75.701735,41.375743
1715,"PA,Warminster",2,-75.087723,40.201170000000005
1716,"PA,Harrisburg",5,-76.86506779999999,40.2844582
1717,"PA,Erie",8,-80.090169875,42.094535875000005
1718,"PA,Myerstown",1,-76.306252,40.372981
1719,"PA,Trevose",3,-74.969005,40.13423366666667
1720,"PA,Beaver Falls",2,-80.3210865,40.7633395
1721,"PA,Gettysburg",3,-77.23480766666667,39.83609366666667
1722,"PA,Melrose Park",1,-75.133915,40.067206
1723,"PA,Grove City",1,-80.08148100000001,41.1558
1724,"PA,Gwynedd Valley",1,-75.23660100000001,40.202804
1725,"PA,Haverford",1,-75.305207,40.007452
1726,"PA,Immaculata",1,-75.570711,40.027981
1727,"PA,Indiana",2,-79.1405925,40.631800999999996
1728,"PA,New Castle",3,-80.365436,41.02031133333333
1729,"PA,Wilkes Barre",2,-75.8419505,41.252756
1730,"PA,Scranton",8,-75.65104062500001,41.422666
1731,"PA,Huntingdon",1,-78.017292,40.500523
1732,"PA,La Plume",1,-75.777456,41.558969
1733,"PA,Wilkes-Barre",2,-75.885042,41.247147999999996
1734,"PA,Kittanning",1,-79.52003,40.813778000000006
1735,"PA,Kutztown",1,-75.78393299999999,40.513560999999996
1736,"PA,Easton",1,-75.209786,40.69956
1737,"PA,North Wales",1,-75.284662,40.22379
1738,"PA,Lansdale",1,-75.286281,40.243302
1739,"PA,Annville",1,-76.514431,40.330604
1740,"PA,Schnecksville",1,-75.610715,40.66474
1741,"PA,Wyomissing",1,-75.978873,40.344627
1742,"PA,Bethlehem",8,-75.382868625,40.635599625
1743,"PA,Levittown",1,-74.829013,40.177232000000004
1744,"PA,Lincoln University",1,-75.926458,39.807722999999996
1745,"PA,Lock Haven",1,-77.46010799999999,41.141517
1746,"PA,Nanticoke",1,-75.991095,41.194728000000005
1747,"PA,Williamsport",2,-77.0118325,41.2404025
1748,"PA,Jenkintown",1,-75.104786,40.087140000000005
1749,"PA,Mansfield",1,-77.073901,41.807466999999995
1750,"PA,Mechanicsburg",1,-76.98826899999999,40.156579
1751,"PA,Millersville",1,-76.357381,40.000337
1752,"PA,Dallas",1,-75.971541,41.345277
1753,"PA,Blue Bell",2,-75.2831085,40.172272
1754,"PA,Cresson",1,-78.600898,40.459679
1755,"PA,Aston",1,-75.440022,39.874876
1756,"PA,Pulaski",1,-80.497224,41.085386
1757,"PA,Tannersville",2,-75.314623,41.0344965
1758,"PA,McKees Rocks",1,-80.091066,40.472356
1759,"PA,Elkins Park",1,-75.129511,40.085774
1760,"PA,Malvern",1,-75.522545,40.052256
1761,"PA,Hershey",1,-76.67408,40.264245
1762,"PA,New Kensington",1,-79.697232,40.551159000000006
1763,"PA,Sharon",3,-80.505811,41.232236
1764,"PA,Lehman",1,-76.016599,41.306003000000004
1765,"PA,Dunmore",1,-75.620583,41.440258
1766,"PA,Middletown",1,-76.7423,40.203765999999995
1767,"PA,DuBois",1,-78.751784,41.126940999999995
1768,"PA,Lemont Furnace",1,-79.65776899999999,39.947216999999995
1769,"PA,University Park",2,-77.852221,40.8146415
1770,"PA,McKeesport",1,-79.82744699999999,40.345582
1771,"PA,Mont Alto",1,-77.542355,39.842046999999994
1772,"PA,Abington",1,-75.109083,40.11683
1773,"PA,Schuylkill Haven",1,-76.166326,40.640499
1774,"PA,Washington",3,-80.24168100000001,40.17899766666667
1775,"PA,Langhorne",1,-74.909509,40.165809
1776,"PA,Bradford",1,-78.673701,41.943415
1777,"PA,Greensburg",3,-79.54319233333332,40.296340666666666
1778,"PA,Titusville",1,-79.664156,41.628696999999995
1779,"PA,West Mifflin",3,-79.93661733333333,40.35132166666667
1780,"PA,Oakdale",1,-80.18940400000001,40.424679
1781,"PA,Wyncote",3,-75.15442266666666,40.089182
1782,"PA,Moon Township",1,-80.210468,40.520415
1783,"PA,Rosemont",1,-75.32925,40.033417
1784,"PA,Loretto",1,-78.63904000000001,40.506734
1785,"PA,Latrobe",2,-79.403762,40.29265
1786,"PA,Frackville",1,-76.22938,40.775735
1787,"PA,Shippensburg",1,-77.522335,40.057933
1788,"PA,Slippery Rock",1,-80.045965,41.062719
1789,"PA,Wynnewood",1,-75.255675,39.99133
1790,"PA,State College",1,-77.855466,40.775033
1791,"PA,Stroudsburg",1,-75.223872,40.989612
1792,"PA,Selinsgrove",1,-76.87532900000001,40.797502
1793,"PA,Swarthmore",1,-75.35427800000001,39.905159000000005
1794,"PA,Greenville",1,-80.384383,41.413540000000005
1795,"PA,Falls Creek",1,-78.795923,41.147974
1796,"PA,Ambridge",1,-80.23017800000001,40.593403
1797,"PA,Collegeville",1,-75.456505,40.193023
1798,"PA,Phoenixville",1,-75.5469,40.117835
1799,"PA,Wayne",1,-75.382097,40.053697
1800,"PA,Sharon Hill",1,-75.273105,39.908715
1801,"PA,Villanova",1,-75.345457,40.039388
1802,"PA,Waynesburg",2,-80.1686355,39.896704
1803,"PA,West Chester",1,-75.59812,39.953398
1804,"PA,New Wilmington",1,-80.331017,41.119271999999995
1805,"PA,Youngwood",1,-79.564897,40.234321
1806,"PA,Chester",1,-75.355363,39.861689
1807,"PA,Chambersburg",3,-77.66553733333333,39.92747633333334
1808,"RI,Providence",8,-71.421920125,41.825667249999995
1809,"RI,Smithfield",1,-71.539547,41.920092
1810,"RI,East Greenwich",1,-71.502892,41.661783
1811,"RI,Pawtucket",1,-71.405906,41.880296
1812,"RI,Warwick",1,-71.481509,41.712817
1813,"RI,Kingston",1,-71.52735600000001,41.484691
1814,"RI,Bristol",2,-71.261176,41.650594
1815,"RI,Newport",2,-71.30798200000001,41.4762465
1816,"RI,North Providence",1,-71.459428,41.856096
1817,"SC,Graniteville",1,-81.841666,33.533833
1818,"SC,Columbia",18,-81.04037177777778,34.02720922222222
1819,"SC,Anderson",2,-82.64122749999999,34.507532999999995
1820,"SC,Charleston",11,-80.00416927272725,32.848271090909094
1821,"SC,Beaufort",1,-80.689468,32.420196999999995
1822,"SC,Greenville",9,-82.36874133333332,34.851177444444446
1823,"SC,Central",1,-82.761586,34.728068
1824,"SC,Greenwood",3,-82.141418,34.20663
1825,"SC,Cheraw",1,-79.939245,34.698248
1826,"SC,Orangeburg",4,-80.84731425,33.508414
1827,"SC,Clemson",1,-82.835114,34.679381
1828,"SC,Rock Hill",4,-81.0162665,34.939955
1829,"SC,Hartsville",1,-80.07041600000001,34.37696
1830,"SC,Spartanburg",8,-81.95152225,34.969703249999995
1831,"SC,Denmark",2,-81.125746,33.310277
1832,"SC,Due West",1,-82.39095,34.332087
1833,"SC,Florence",3,-79.758998,34.224028000000004
1834,"SC,Conway",3,-79.00294633333333,33.793319000000004
1835,"SC,North Augusta",1,-81.957885,33.497587
1836,"SC,Gaffney",1,-81.64916099999999,35.057076
1837,"SC,West Columbia",1,-81.11576099999999,33.949325
1838,"SC,Sumter",4,-80.360362,33.93796825
1839,"SC,Newberry",1,-81.619777,34.285868
1840,"SC,Tigerville",1,-82.37026,35.069758
1841,"SC,Clinton",1,-81.87448,34.465834
1842,"SC,Aiken",2,-81.742446,33.5661245
1843,"SC,Bluffton",1,-80.97359499999999,32.303308
1844,"SC,Lancaster",1,-80.78706899999999,34.736282
1845,"SC,Allendale",1,-81.301838,33.014312
1846,"SC,Union",1,-81.621042,34.717771
1847,"SC,Pendleton",1,-82.792015,34.641914
1848,"SC,Kingstree",1,-79.817984,33.657084999999995
1849,"SD,Sioux Falls",8,-96.748289375,43.534105624999995
1850,"SD,Rapid City",6,-103.22285333333333,44.06285283333333
1851,"SD,Spearfish",1,-103.87096600000001,44.494889
1852,"SD,Madison",1,-97.11335799999999,44.013014
1853,"SD,Mitchell",2,-98.0168465,43.6930475
1854,"SD,Watertown",1,-97.095229,44.901714
1855,"SD,Yankton",2,-97.4088845,42.873417
1856,"SD,Aberdeen",2,-98.488009,45.467084
1857,"SD,Kyle",1,-102.24033100000001,43.366813
1858,"SD,Brookings",2,-96.78582700000001,44.313173
1859,"SD,Mission",1,-100.62254899999999,43.298878
1860,"SD,Sisseton",1,-97.060835,45.562731
1861,"SD,Vermillion",1,-96.925283,42.786019
1862,"TN,Nashville",28,-86.75816332142858,36.15065567857143
1863,"TN,Milan",1,-88.760125,35.919195
1864,"TN,Athens",2,-84.611606,35.4446375
1865,"TN,Clarksville",5,-87.3727332,36.56518620000001
1866,"TN,McKenzie",2,-88.5046885,36.137448
1867,"TN,Dayton",2,-85.02666300000001,35.4826755
1868,"TN,Jefferson City",1,-83.491709,36.122934
1869,"TN,Chattanooga",5,-85.24646680000001,35.070297000000004
1870,"TN,Cleveland",4,-84.87511375,35.18001675
1871,"TN,Columbia",2,-87.08918750000001,35.6086465
1872,"TN,Covington",1,-89.659976,35.545225
1873,"TN,Lebanon",2,-86.318367,36.210347
1874,"TN,Dickson",1,-87.366455,36.050549
1875,"TN,Dyersburg",1,-89.39079100000001,36.047565000000006
1876,"TN,Johnson City",3,-82.36823033333333,36.32858100000001
1877,"TN,Elizabethton",1,-82.178198,36.366033
1878,"TN,Fayetteville",1,-86.577055,35.153554
1879,"TN,Gallatin",2,-86.52314000000001,36.364854
1880,"TN,Henderson",1,-88.637964,35.440611
1881,"TN,Harriman",2,-84.568961,35.923508999999996
1882,"TN,Hartsville",1,-86.14366,36.387190999999994
1883,"TN,Madisonville",1,-84.36411700000001,35.558912
1884,"TN,Hohenwald",1,-87.573757,35.551687
1885,"TN,Jacksboro",1,-84.20891800000001,36.3175
1886,"TN,LaFollette",1,-84.159272,36.346799
1887,"TN,Jackson",5,-88.84249600000001,35.638716
1888,"TN,Knoxville",11,-83.99760027272727,35.95014254545454
1889,"TN,Murfreesboro",5,-86.3970846,35.8372054
1890,"TN,Bristol",1,-82.159421,36.585309
1891,"TN,Harrogate",1,-83.660198,36.578508
1892,"TN,Livingston",1,-85.31724799999999,36.39594
1893,"TN,Pulaski",2,-87.0217395,35.1961635
1894,"TN,Maryville",1,-83.964223,35.751505
1895,"TN,Cookeville",5,-85.491882,36.1592966
1896,"TN,Madison",2,-86.6950775,36.272572499999995
1897,"TN,Morristown",2,-83.281003,36.208911
1898,"TN,Tullahoma",1,-86.299184,35.365903
1899,"TN,Newbern",1,-89.257582,36.120067
1900,"TN,Paris",1,-88.296432,36.296408
1901,"TN,Ripley",1,-89.519264,35.779827000000004
1902,"TN,Crump",1,-88.319153,35.221452
1903,"TN,Shelbyville",1,-86.421097,35.485655
1904,"TN,Sewanee",1,-85.920179,35.204719
1905,"TN,Huntsville",1,-84.528273,36.408177
1906,"TN,Crossville",1,-85.039137,35.946609
1907,"TN,McMinnville",1,-85.74531,35.701370000000004
1908,"TN,Whiteville",1,-89.159449,35.319573999999996
1909,"TN,Collegedale",1,-85.052088,35.048254
1910,"TN,Martin",1,-88.864211,36.340338
1911,"TN,Blountville",1,-82.408885,36.484961
1912,"TN,Greeneville",1,-82.760818,36.172435
1913,"TX,Abilene",5,-99.7372572,32.4450056
1914,"TX,Alvin",1,-95.24067099999999,29.396244
1915,"TX,Garland",3,-96.650921,32.888777000000005
1916,"TX,Lufkin",2,-94.7251645,31.309084
1917,"TX,San Angelo",2,-100.4684955,31.430921000000005
1918,"TX,Arlington",8,-97.11141487500001,32.721192125
1919,"TX,Grand Prairie",7,-97.03149457142857,32.72125642857143
1920,"TX,Houston",69,-95.459340057971,29.782481536231877
1921,"TX,Sherman",2,-96.601228,33.6598935
1922,"TX,Austin",28,-97.74685507142856,30.31931396428571
1923,"TX,Jacksonville",2,-95.2684175,31.9724035
1924,"TX,Waco",4,-97.12905625,31.572006000000002
1925,"TX,Beeville",1,-97.75589599999999,28.435194
1926,"TX,Brenham",2,-96.3980555,30.168300000000002
1927,"TX,Lake Jackson",1,-95.40934,29.048603999999997
1928,"TX,Farmers Branch",2,-96.83713850000001,32.93156449999999
1929,"TX,Lancaster",1,-96.763413,32.625679999999996
1930,"TX,Killeen",5,-97.7554878,31.100362
1931,"TX,Bryan",3,-96.36875666666667,30.639542666666667
1932,"TX,Cisco",1,-98.985206,32.401132000000004
1933,"TX,Clarendon",1,-100.90242099999999,34.944558
1934,"TX,Kerrville",2,-99.140478,30.0432665
1935,"TX,Gainesville",1,-97.1658,33.6188
1936,"TX,Corpus Christi",5,-97.389028,27.731379800000003
1937,"TX,Carrollton",1,-96.843526,32.973328
1938,"TX,Irving",8,-96.9759665,32.86931425
1939,"TX,Marshall",2,-94.375651,32.547743999999994
1940,"TX,Texarkana",4,-94.09837549999999,33.45619925
1941,"TX,Commerce",1,-95.908451,33.243745000000004
1942,"TX,Mesquite",4,-96.629287,32.80578525
1943,"TX,El Paso",15,-106.36884473333333,31.759484733333334
1944,"TX,Benbrook",1,-97.420695,32.82338
1945,"TX,Borger",1,-101.40600500000001,35.657778
1946,"TX,Galveston",3,-94.81344166666668,29.294286
1947,"TX,Denison",1,-96.633891,33.705740000000006
1948,"TX,Athens",1,-95.858513,32.196596
1949,"TX,Hillsboro",1,-97.088332,32.010928
1950,"TX,Victoria",4,-96.98450075,28.810130750000003
1951,"TX,Big Spring",2,-101.476522,32.239395
1952,"TX,Brownwood",1,-98.98520400000001,31.716466999999998
1953,"TX,Hawkins",1,-95.181513,32.587942
1954,"TX,Kilgore",1,-94.87146800000001,32.377821000000004
1955,"TX,Beaumont",5,-94.12205780000001,30.058789400000002
1956,"TX,Orange",1,-93.732235,30.0922
1957,"TX,Port Arthur",1,-93.925886,29.880384999999997
1958,"TX,Laredo",4,-99.47615975,27.544293
1959,"TX,Baytown",1,-94.978184,29.732505
1960,"TX,Longview",3,-94.74896266666667,32.484524666666665
1961,"TX,Lubbock",8,-101.904548625,33.567633375
1962,"TX,Texas City",1,-94.999602,29.395809999999997
1963,"TX,Belton",1,-97.463471,31.066793
1964,"TX,Midland",1,-102.106153,32.029646
1965,"TX,Wichita Falls",1,-98.519386,33.874809
1966,"TX,New Braunfels",2,-98.1134475,29.700076
1967,"TX,Corsicana",1,-96.498731,32.076060999999996
1968,"TX,The Woodlands",1,-95.48810300000001,30.18737
1969,"TX,Denton",3,-97.12982566666666,33.209907666666666
1970,"TX,Mount Pleasant",1,-94.881855,33.104931
1971,"TX,Odessa",2,-102.3565555,31.8781605
1972,"TX,Edinburg",1,-98.173567,26.306759000000003
1973,"TX,Brownsville",4,-97.50278225,25.92783175
1974,"TX,Carthage",1,-94.35635500000001,32.156214
1975,"TX,Paris",1,-95.529177,33.650929
1976,"TX,Prairie View",1,-95.989475,30.092425
1977,"TX,Ranger",1,-98.685215,32.456773
1978,"TX,Huntsville",2,-95.54804150000001,30.7086435
1979,"TX,Pasadena",3,-95.15952566666668,29.671389666666666
1980,"TX,Seguin",2,-97.9735145,29.5712015
1981,"TX,Levelland",1,-102.365075,33.575904
1982,"TX,Weslaco",3,-97.97193033333333,26.154349666666672
1983,"TX,McAllen",9,-98.23301533333333,26.23546966666667
1984,"TX,Uvalde",2,-99.76425900000001,29.2149855
1985,"TX,Waxahachie",1,-96.853492,32.40443
1986,"TX,Georgetown",3,-97.68233033333333,30.633110333333335
1987,"TX,Nacogdoches",1,-94.64908,31.621056
1988,"TX,San Marcos",2,-97.9315155,29.8857905
1989,"TX,Keene",1,-97.32701999999999,32.397617
1990,"TX,Terrell",1,-96.28564899999999,32.735508
1991,"TX,Alpine",1,-103.65146899999999,30.363139
1992,"TX,Stephenville",1,-98.214866,32.214988
1993,"TX,Temple",2,-97.3648525,31.077793000000003
1994,"TX,Kingsville",1,-97.882387,27.525168
1995,"TX,College Station",3,-96.32279366666667,30.618369
1996,"TX,Richardson",7,-96.74661985714285,32.96063514285714
1997,"TX,Tyler",5,-95.27203540000001,32.35998959999999
1998,"TX,Vernon",1,-99.31909399999999,34.159298
1999,"TX,Plainview",1,-101.730042,34.187677
2000,"TX,Weatherford",1,-97.792629,32.74133
2001,"TX,Canyon",1,-101.914736,34.982789000000004
2002,"TX,Snyder",1,-100.91494499999999,32.678458
2003,"TX,Wharton",1,-96.085815,29.3238
2004,"UT,Provo",9,-111.6614488888889,40.24407077777777
2005,"UT,Logan",4,-111.834114,41.735484
2006,"HI,Laie",1,-157.92658600000001,21.642073999999997
2007,"UT,West Jordan",2,-111.9383025,40.598343
2008,"UT,Sandy",2,-111.8516445,40.5644795
2009,"UT,Kaysville",1,-111.925227,41.028956
2010,"UT,Saint George",4,-113.581684,37.098272
2011,"UT,Cedar City",3,-113.068152,37.672871666666666
2012,"UT,Holladay",1,-111.835077,40.666643
2013,"UT,Salt Lake City",15,-111.88274586666667,40.72425153333333
2014,"UT,Ogden",3,-111.96129533333334,41.22736866666666
2015,"UT,Ephraim",1,-111.58296000000001,39.360177
2016,"UT,Richfield",1,-112.099377,38.767007
